afo_application_number,ai_number,cnmp_received_date,deadline_to_request_hearing,deadline_to_submit_written_comments,farm_address,farm_county,farm_designation,farm_name,latest_cnmp_status_form_received_date,latitude,longitude,nmp_received_date,noi_received_date,number_of_animals,primary_animal_type,public_hearing_date,public_hearing_location,status,conservation_plan_received_date,afo_registered_date,afo_registration_number,coc_received_date
,132763,11/8/2012,,,"3005 Traceys Mill Rd, Manchester MD 21102",Carroll,CAFO,/NORMAN E. SELLERS/PANORA ACRES INC.,,39.694482,-76.891703,7/9/2013,12/3/2010,520,Dairy Cattle,,,Registered,,9/30/2013,2010-CDC-0441,
,67123,4/15/2014,,,"11071 Sharptown Rd, Mardela Springs MD 21837",Wicomico,CAFO,"11071 SHARPTOWN ROAD, LLC",,38.497188,-75.745961,,2/12/2014,86700,Chickens-not laying hens-dry,,,Registered,,6/30/2014,2014-CCD-0190,
,66698,3/10/2010,,,"4541 Shelltown Rd, Marion MD 21838",Somerset,CAFO,"A&P FARMS, INC.",,38.002648,-75.641164,2/26/2009,2/26/2009,153200,Chickens-not laying hens-dry,,,Registered,,8/16/2011,2009-CCD-0133,
,66753,1/7/2010,,,"10819 Jerusalem Rd, Princess Anne MD 21853",Somerset,CAFO,AARON LESSIG/LESSIG & MADISON BROOKE FARM,,38.178722,-75.803554,3/5/2009,3/5/2009,206000,Chickens-not laying hens-dry,,,Registered,,1/21/2011,2009-CCD-0031,
,66644,3/18/2011,,,"28586 Mt Vernon Rd, Princess Anne MD 21853",Somerset,CAFO,ABDUL WAHID/GHUMAN FARM,,38.233636,-75.759739,2/26/2009,2/26/2009,109400,Chickens-not laying hens-dry,,,Registered,,5/29/2012,2009-CCD-0134,
,67172,6/2/2014,,,"2836 Sheephouse Rd2735 Sheephouse Rd, Pocomoke City MD 21851",Worcester,CAFO,ABERDEEN FARM LLC,,38.048636,-75.53426,,6/2/2014,428000,Chickens-not laying hens-dry,,,Registered,,7/24/2014,2009-CCD-0010A,
,67785,1/6/2013,,,"10308 Caleb Rd, Berlin MD 21811",Worcester,CAFO,AG RENEWAL ENTERPRISES INC.,,38.357793,-75.236979,,3/3/2009,110000,Chickens-not laying hens-dry,,,Registered,,11/24/2014,2009-CCD-0260,
,87101,3/29/2012,,,"2409 Ward Rd, Pocomoke City MD 21851",Worcester,CAFO,AHSAN CHOUDARY / SAMS FARM,,38.084162,-75.441074,,3/29/2012,179200,Chickens-not laying hens-dry,,,Registered,,8/6/2012,2012-CCD-0610,
,29910,9/5/2014,,,"4041 Johnson Neck Rd, Pocomoke City MD 21851",Worcester,CAFO,AKSMAH LLC / BILLO'S FARM,,38.09519, -75.473020,,4/23/2014,216000,Chickens-not laying hens-dry,,,Registered,,10/30/2014,2014-CCD-0682,
,67203,6/14/2012,,,"9101 Logtown Rd, Berlin MD 21811",Worcester,CAFO,ALAN & KRISTIN HUDSON,,38.365688,-75.253851,3/5/2009,3/5/2009,80000,Chickens-not laying hens-dry,,,Registered,,8/15/2014,2009-CCD-0305,
,137029,4/3/2012,,,"6454 Wheatley Rd, Federalsburg MD 21632",Dorchester,CAFO,"ALLEN HARIM FARMS, LLC/LUCY FARM",,38.641126,-75.742338,,3/1/2012,115800,Chickens-not laying hens-dry,,,Registered,,8/2/2012,2012-CCD-0603,
,137032,4/3/2012,,,"7024 Whiteley Rd, Federalsburg MD 21632",Dorchester,CAFO,"ALLEN HARIM FARMS, LLC/TODD FARM",,38.684101,-75.805175,,3/1/2012,82000,Chickens-not laying hens-dry,,,Registered,,8/2/2012,2012-CCD-0602,
,137027,4/3/2012,,,"5635 Davis Mill Pond Rd, Federalsburg MD 21632",Dorchester,MAFO,"ALLEN HARIM FOODS, LLC/DAVIS MILL FARM",,38.658135,-75.752833,,3/1/2012,50000,Chickens-not laying hens-dry,,,Registered,,8/17/2012,2012-MCD-0607,
,137030,4/3/2012,,,"6940 Reliance Rd, Federalsburg MD 21632",Dorchester,MAFO,"ALLEN HARIM FOODS, LLC/DOBSON FARM",,38.677038,-75.763407,,3/1/2012,75400,Chickens-not laying hens-dry,,,Registered,,8/17/2012,2012-MCD-0605,
,67227,9/12/2011,,,"3422 Sheephouse Rd, Pocomoke City MD 21851",Worcester,CAFO,ALVIN ALLEN/POOR BOY FARM,,38.044935,-75.508173,3/2/2009,3/2/2009,51000,Chickens-not laying hens-dry,,,Registered,,12/30/2011,2009-CCD-0191,
,132494,2/25/2011,,,"6585 Sixty Foot Rd, Pittsville MD 21850",Wicomico,CAFO,ANDREW JAMES HAGGERTY/SANDY HILL FARM,,38.371195,-75.426133,10/28/2010,10/28/2010,70000,Chickens-not laying hens-dry,,,Registered,,12/28/2011,2010-CCD-0431,
,66531,1/31/2012,,,"210 Shawn Rd, Centreville MD 21617",Queen Anne's,CAFO,ANDREW L. MCLEAN/RELIEF FARM,,39.037865,-75.928166,2/26/2009,2/26/2009,180000,Chickens-not laying hens-dry,,,Registered,,5/29/2012,2009-CCD-0135,
,67161,12/27/2011,,,"33361 Melson Rd, Delmar MD 21875",Wicomico,CAFO,ANDY TRAN/TRAN FARM & NINE GOLDEN CHICKS,,38.437123,-75.452241,3/2/2009,3/2/2009,240000,Chickens-not laying hens-dry,,,Registered,,3/15/2012,2009-CCD-0193,
,68131,3/8/2012,,,"23235 Capitola Rd, Tyaskin MD 21865",Wicomico,CAFO,"ANTHONY BALCERZAK, SR./WHITE HAVEN FARM",,38.288409,-75.810374,9/27/2010,3/2/2009,48000,Chickens-not laying hens-dry,,,Registered,,11/1/2012,2009-CCD-0195,
,138517,3/8/2012,,,"21322 Bivalve Lodge Rd, Bivalve MD 21814",Wicomico,CAFO,ANTHONY E. BALCERZAK JR./BIG BIVALVE,,38.302756,-75.876573,,9/4/2012,35000,Chickens-not laying hens-dry,,,Registered,,10/30/2012,2012-CCD-0625,
,66845,10/12/2010,,,"3640 Pepper Rd, Federalsburg MD 21632",Caroline,CAFO,ANTHONY MATURO FARM,,38.707253,-75.819563,6/25/2010,3/2/2009,51500,Chickens-not laying hens-dry,,,Registered,,6/29/2011,2009-CCD-0075,
,68716,3/1/2010,,,"31635 Mitchell Rd, Princess Anne MD 21853",Somerset,CAFO,ANTHONY RIZZI/RIZZI'S ROOST,,38.149389,-75.652754,3/3/2009,3/3/2009,81600,Chickens-not laying hens-dry,,,Registered,,8/13/2012,2009-CCD-0276,
,67955,2/1/2011,,,"26666 Cottman Rd, Eden MD 21822",Wicomico,CAFO,ARTHUR WIDDOWSON/PET PALACE,,38.282168,-75.693308,12/29/2009,2/19/2009,62800,Chickens-not laying hens-dry,,,Registered,,1/31/2012,2009-CCD-0089,
,67021,6/30/2010,,,"10435 Chapel Rd, Easton MD 21601",Talbot,CAFO,AUBREY STORM/FIRST FROST FARM,,38.833697,-76.003735,2/19/2009,2/19/2009,61000,Chickens-not laying hens-dry,,,Registered,,5/11/2012,2009-CCD-0090,
,68033,12/16/2013,,,"2633 Bunting Rd, Pocomoke City MD 21851",Worcester,CAFO,AYDELOTTE POULTRY LLC,,38.00913,-75.540313,,2/26/2013,165000,Chickens-not laying hens-dry,,,Registered,,4/21/2014,2013-CCD-0668,
,67852,11/10/2009,,,"6025 Eldorado Federalsburg Rd, Rhodesdale MD 21659",Dorchester,CAFO,"BARNES FAMILY FARMS, LLC",,38.607957,-75.775786,3/2/2009,3/2/2009,,,,,Registered,,10/31/2014,2009-CCD-0196,
,66765,,,,"5405 Wesley Rd, Hurlock MD 21643",Dorchester,CAFO,"BARNES FAMILY FARMS, LLC/WESLEY ROAD FARM",,38.618602,-75.781045,9/5/2014,8/19/2010,70000,Chickens-not laying hens-dry,,,Registered,,10/29/2014,2010-CCD-0686,
,132862,12/17/2010,,,"24073 E. Hurleys Neck Rd, Mardela Springs MD 21837",Wicomico,CAFO,BARRY DOUGLAS MALPASS/OVEREASY AND KATHY TOO FARMS,,38.415578,-75.778382,,12/17/2010,128500,Chickens-not laying hens-dry,,,Registered,,6/27/2012,2010-CCD-0445,
,129180,11/13/2012,,,"5941 Cokesbury Rd, Rhodesdale MD 21659",Dorchester,CAFO,BARRY SPEDDEN,,38.614811,-75.726718,,10/26/2009,204600,Chickens-not laying hens-dry,,,Registered,,11/12/2013,2009-CCD-0563,
,68938,10/1/2009,,,"6641 Whitesburg Rd, Snow Hill MD 21863",Worcester,CAFO,BARRY W. MILES/BYRDS OF A FEATHER FARM,,38.207057,-75.559931,10/8/2009,10/8/2009,58200,Chickens-not laying hens-dry,,,Registered,,7/12/2010,2009-CCD-0009,
,68934,8/19/2009,,,"12033 Petes Hill Rd, Princess Anne MD 21853",Somerset,CAFO,BARRY W. MILES/TWO CATS AND FIVE DOGS FARMS,,38.209878,-75.584525,,10/8/2009,166600,Chickens-not laying hens-dry,,,Registered,,11/1/2010,2009-CCD-0006,
,67047,1/22/2013,,,"7779 Holt Rd, Parsonsburg MD 21849",Wicomico,CAFO,BEAVER RUN FARM INC./QUINT RILEY FARM,,38.405027,-75.500899,7/15/2013,2/24/2009,42000,Chickens-not laying hens-dry,,,Registered,,9/17/2013,2009-CCD-0113,
,66638,12/28/2009,,,"1023 Colona Rd, Pocomoke City MD 21851",Worcester,CAFO,BEN LIM/EMANNUEL AND BEN'S FARM,,38.013675,-75.601539,3/3/2009,3/3/2009,120000,Chickens-not laying hens-dry,,,Registered,,5/9/2011,2009-CCD-0025,
,67925,2/21/2014,,,"9265 Amber Ln, Westover MD 21871",Somerset,CAFO,BEN NGUYEN,,38.140029,-75.733782,,2/21/2014,104000,Chickens-not laying hens-dry,,,Registered,,3/7/2014,2009-CCD-0334,
,129684,11/18/2009,,,"31798 W. Post Office Rd, Princess Anne MD 21853",Somerset,CAFO,BEN NGUYEN/TOPTON FARM,,38.212233,-75.650021,,11/18/2009,410000,Chickens-not laying hens-dry,,,Registered,,5/31/2011,2009-CCD-0059,
,68052,3/22/2011,,,"3646 Sheephouse Rd, Pocomoke City MD 21851",Worcester,CAFO,BENJAMIN AYDELOTTE/SHEEPHOUSE FARM,,38.043835,-75.496726,6/3/2009,3/2/2009,92000,Chickens-not laying hens-dry,,,Registered,,3/15/2012,2009-CCD-0198,
,66984,3/23/2010,,,"30560 Charles Barnes Rd, Westover MD 21871",Somerset,CAFO,BERT RAMSAY/SANDY BEACH FARM,,38.068072,-75.694967,,9/20/2012,107000,Chickens-not laying hens-dry,,,Registered,,4/11/2014,2009-CCD-0556,
,67996,5/6/2013,,,"4119 Bestpitch Ferry Rd, Cambridge MD 21613",Dorchester,CAFO,BERT WEBER/PRIDE ROCK FARM,,38.449005,-76.028301,5/21/2009,6/10/2013,41000,Chickens-not laying hens-dry,,,Registered,,8/28/2013,2009-CCD-0199,
,130686,3/29/2010,,,"25056 E. Cherry Ln, Greensboro MD 21639",Caroline,CAFO,"BETTER DAYS FARM OPERATIONS, LLC",,39.007774,-75.839374,8/9/2011,4/16/2010,300000,Chickens-not laying hens-dry,,,Registered,,3/21/2011,2009-CCD-0042,
,66704,8/27/2012,,,"3509 Follow Ditch Rd, Princess Anne MD 21853",Somerset,CAFO,BILL MILLER FARM,,38.14261, -75.617008,,3/2/2009,128000,Chickens-not laying hens-dry,,,Registered,,12/6/2013,2009-CCD-0511,
,67160,7/10/2012,,,"32832 Shavox Rd, Parsonsburg MD 21849",Wicomico,CAFO,BILLY JOE TOMLINSON FARM,,38.359682,-75.477728,6/9/2011,3/2/2009,59200,Chickens-not laying hens-dry,,,Registered,,1/30/2013,2009-CCD-0200,
,67147,3/13/2014,,,"36540 Sheppard Crossing Rd36555 Sheppard Crossing Rd, Willards MD 21874",Wicomico,CAFO,BLAIR C. RENNEBERGER/SHEPPARDS CROSSSING FARM,,38.441913,-75.34316,2/25/2009,2/25/2009,63600,Chickens-not laying hens-dry,,,Registered,,6/4/2014,2009-CCD-0119,
,67928,10/10/2013,,,"28964 Waller Rd, Delmar MD 21875",Wicomico,CAFO,BLAIR MITCHELL FARMS,,38.450991,-75.606759,10/10/2013,3/13/2009,88000,Chickens-not laying hens-dry,,,Registered,,2/7/2014,2009-CCD-0677,
,67184,6/29/2011,,,"10359 Georgetown Rd, Berlin MD 21811",Worcester,CAFO,"BOB'S FARM, INC.",,38.349769,-75.202158,2/19/2009,2/19/2009,112000,Chickens-not laying hens-dry,,,Registered,,9/3/2013,2009-CCD-0091,
,68669,8/31/2010,,,"4160 Laurel Grove Rd, Federalsburg MD 21632",Caroline,CAFO,BONNIE AND HENRY OSTERMANN,,38.721516,-75.809968,8/26/2009,8/26/2009,38200,Chickens-not laying hens-dry,,,Registered,,3/21/2011,2009-CCD-0045,
,136467,1/5/2012,,,"6704 Worcester Hwy, Newark MD 21841",Worcester,CAFO,BONNIE LEWIS/HAMMOND FARM,,38.234102,-75.315051,1/11/2012,1/11/2012,50000,Chickens-not laying hens-dry,,,Registered,,3/9/2012,2012-CCD-0575,
,31600,10/8/2014,,,"12107 Boyd Rd, Clear Spring MD 21722",Washington,CAFO,"BRAGUNIER FARM, LLC",,39.645964, -77.947908,2/14/2012,4/5/2010,1000,Cattle - includes heifers,,,Registered,,11/24/2014,2010-CCA-0084,
,67889,5/3/2011,,,"10985 Riverton Rd, Mardela Springs MD 21837",Wicomico,CAFO,BRENDA K. ALLEN/JUNE PERSONS FARM,,38.495662,-75.763964,9/23/2010,2/26/2009,40500,Chickens-not laying hens-dry,,,Registered,,1/3/2012,2009-CCD-0136,
,67183,12/23/2009,,,"630 Dun Swamp Rd, Pocomoke City MD 21851",Worcester,CAFO,"BRIAN DERRICKSON/ CHICKEN CITY, LITTLE BD FARM",,38.023316,-75.558835,12/23/2009,2/23/2009,235000,Chickens-not laying hens-dry,,,Registered,,9/16/2011,2009-CCD-0101,
,143865,5/15/2014,,,"3232 St. Lukes Rd, Salisbury MD 21804",Wicomico,CAFO,BRIAN JONES / B & C FARM,,38.28121,-75.572717,,5/15/2014,90000,Chickens-not laying hens-dry,,,Registered,,7/18/2014,2014-CCD-0694,
,66705,8/29/2013,,,"28179 Venton Rd, Princess Anne MD 21853",Somerset,MAFO,BRIAN LAIRD FARM,,38.194417,-75.774354,3/12/2009,2/19/2009,92000,Chickens-not laying hens-dry,,,Registered,,6/4/2014,2009-MCD-0479,
,143624,4/25/2014,,,"1143 Buck Harbor Rd, Pocomoke City MD 21851",Worcester,CAFO,BRIAN STERLING,,38.040105, -75.517955,,4/25/2014,,,,,Registered,,6/20/2014,2014-CCD-0692,
,67942,3/23/2011,,,"2311 Payne Rd3064 Brantley Rd, Pocomoke City MD 21851",Worcester,CAFO,BROOKS AYDELOTTE/PEACE & PLENTY FARM & ROOSTERS AND ROSES,,38.027761,-75.525137,6/3/2009,3/2/2009,210000,Chickens-not laying hens-dry,,,Registered,,5/11/2012,2009-CCD-0202,
,67233,9/7/2010,,,"2444 Lambertson Rd, Pocomoke City MD 21851",Worcester,CAFO,"BROTHERS CHICKEN FARM, INC.",,38.080757,-75.495847,2/19/2009,2/19/2009,260000,Chickens-not laying hens-dry,,,Registered,,9/29/2011,2009-CCD-0092,
,67063,1/11/2012,,,"7954 &7960 Brown Rd, Salisbury MD 21801",Wicomico,CAFO,BROWN LAND & CHICKEN CO. LIMITED PARTNERSHIP,,38.410784,-75.552956,2/19/2009,2/19/2009,144000,Chickens-not laying hens-dry,,,Registered,,3/9/2012,2009-CCD-0093,
,66939,2/25/2011,,,"23670 Willow Pond Rd, Denton MD 21629",Caroline,CAFO,BRUCE BARTZ/TUCKAHOE FARM,,38.890087,-75.883102,2/25/2011,3/16/2009,108000,Chickens-not laying hens-dry,,,Registered,,6/14/2013,2009-CCD-0344,
,132596,4/16/2012,,,"3809 Warwick Rd, Secretary MD 21664",Dorchester,CAFO,BRUCE J. TWILLEY/TWILLEY FARM,,38.61993,-75.951998,12/17/2010,11/17/2010,54000,Chickens-not laying hens-dry,,,Registered,,8/10/2012,2010-CCD-0437,
,66841,2/19/2010,,,"11429 Holly Rd, Ridgely MD 21660",Caroline,CAFO,BRUCE SAIA/LAZY ACRES BP POULTRY,,38.919964,-75.855709,2/19/2009,2/19/2009,150000,Chickens-not laying hens-dry,,,Registered,,5/4/2011,2009-CCD-0094,
,67174,3/29/2011,,,"7658 Davis Rd, Whaleyville MD 21872",Worcester,CAFO,"BRYAN J. TRUITT/ALL IN, NO LIMIT, HUDSON FARM, SAMATHA TRUITT",,38.411734,-75.312679,3/2/2009,3/2/2009,256000,Chickens-not laying hens-dry,,,Registered,,6/14/2013,2009-CCD-0203,
,67069,4/20/2012,,,"3926 Webb Rd, Pittsville MD 21850",Wicomico,CAFO,C & D CHICKEN CORPORATION,,38.298838,-75.374454,3/2/2009,3/2/2009,41600,Chickens-not laying hens-dry,,,Registered,,10/23/2012,2009-CCD-0204,
,68041,7/6/2010,,,"218 Legion Rd, Millington MD 21651",Kent,CAFO,C & M ELLINGSWORTH INC.,,39.246528,-75.868551,2/25/2009,2/25/2009,94000,Chickens-not laying hens-dry,,,Registered,,3/15/2012,2009-CCD-0120,
,66597,2/26/2009,,,"1709 Barclay Rd, Queen Anne MD 21607",Queen Anne's,CAFO,C. DALE STORY/VIILAGE VIEW FARM,,38.125403,-75.733026,2/28/2013,2/26/2009,65000,Chickens-not laying hens-dry,,,Registered,,5/20/2013,2009-CCD-0137,
,66707,1/3/2014,,,"9001 Ring Rd, Westover MD 21871",Somerset,CAFO,C.ANDERSON FARM,,38.12793,-75.735497,9/25/2014,3/26/2013,38000,Chickens-not laying hens-dry,,,Registered,,11/24/2014,2009-CCD-0540,
,66936,2/14/2011,,,"4734 Newton Rd, Preston MD 21655",Caroline,CAFO,CALVIN TAYLOR,,38.740067,-75.90912,2/26/2009,2/26/2009,55200,Chickens-not laying hens-dry,,,Registered,,5/29/2012,2009-CCD-0138,
,67796,9/17/2010,,,"26437 Cottman Rd, Eden MD 21822",Worcester,CAFO,"CARL A. WILSON, JR./WILSON POULTRY FARM",,38.281845,-75.693433,7/8/2010,2/17/2009,54400,Chickens-not laying hens-dry,,,Registered,,9/16/2011,2009-CCD-0086,
,66972,7/29/2011,,,"4425 Maple Dam Rd, Cambridge MD 21613",Dorchester,CAFO,CARROLL HANDLEY/JEWS FARM,,38.474651,-76.066307,7/6/2010,2/2/2009,106800,Chickens-not laying hens-dry,,,Registered,,3/9/2012,2009-CCD-0085,
,67108,12/2/2010,,,"26404 Jacksons Wharf Lane, Eden MD 21822",Worcester,CAFO,CASHER W HITCHENS,,38.337622,-75.697728,2/24/2009,2/24/2009,59900,Chickens-not laying hens-dry,,,Registered,,8/28/2013,2009-CCD-0114,
,67192,7/9/2010,,,"8744 Cedar Lane Rd, Berlin MD 21811",Worcester,CAFO,CEDAR LIVESSTOCK FARM LLC,,38.323428,-75.272576,3/12/2009,3/12/2009,145000,Chickens-not laying hens-dry,,,Registered,,1/20/2012,2009-CCD-0336,
,130034,5/13/2011,,,"6021 Tyson Lane, Snow Hill MD 21863",Worcester,CAFO,"CEDAR MOUNTAIN FARMS, LLC",,38.190812,-75.37812,1/12/2010,1/11/2010,213000,Chickens-not laying hens-dry,,,Registered,,9/3/2013,2010-CCD-0392,
,66628,11/28/2011,,,"11245 Perryhawkin Church Rd, Princess Anne MD 21853",Somerset,CAFO,CHANG SOO YOUN/ALEX FARM,,38.188211,-75.577,3/2/2009,3/2/2009,57200,Chickens-not laying hens-dry,,,Registered,,6/14/2013,2009-CCD-0206,
,23565,5/2/2011,,,"6319 Mountain Church Rd, Jefferson MD 21755",Frederick,CAFO,"CHAR MAR DAIRY FARM, INC.",,39.407333,-77.630963,8/22/2014,1/25/2010,1300,Dairy Cattle,,,Registered,,11/28/2014,2010-CDC-0398,
,66843,4/16/2012,,,"25829 Three Bridges Rd, Federalsburg MD 21632",Caroline,CAFO,CHARLES A. MATTHEWS FARM,,38.735099,-75.811275,3/3/2009,3/3/2009,55000,Chickens-not laying hens-dry,,,Registered,,9/6/2013,2009-CCD-0262,
,133220,4/10/2014,,,"8214 Burnt Mill Rd, Willards MD 21874",Wicomico,CAFO,CHARLES ALLAN WEST/FREEDOM FARM,,38.415654,-75.386021,2/7/2011,2/7/2011,75000,Chickens-not laying hens-dry,,,Registered,,6/30/2014,2011-CCD-0454,
,67795,9/17/2010,,,"3910 Poplar Neck Rd, Preston MD 21655",Caroline,CAFO,CHARLES BALL/BALL FARM,,38.717668,-75.949497,1/14/2013,9/3/2009,45000,Chickens-not laying hens-dry,,,Registered,,3/21/2011,2009-CCD-0043,
,133112,3/15/2010,,,"4326 Jacksonville Rd, Crisfield MD 21817",Somerset,CAFO,CHARLES LAIRD/LAIRD FARM,,38.002862,-75.843505,3/15/2010,2/24/2009,21400,Chickens-not laying hens-dry,,,Registered,,1/21/2011,2009-CCD-0037,
,68036,3/15/2010,,,"4326/4720 Jacksonville Rd, Crisfield MD 21817",Somerset,CAFO,CHARLES LAIRD/ROSS FARM,,38.017471,-75.831622,2/24/2009,2/24/2009,120000,Chickens-not laying hens-dry,,,Registered,,1/21/2011,2009-CCD-0038,
,67120,9/15/2010,,,"9350 Old Railroad Rd, Mardela Springs MD 21837",Wicomico,CAFO,CHARLES WRIGHT/MC FARMS & TIM WRIGHT FARM,,38.452068,-75.701348,,3/5/2009,80000,Chickens-not laying hens-dry,,,Registered,,9/19/2011,2009-CCD-0306,
,67193,3/6/2009,,,"1826 Pocomoke Beltway, Pocomoke City MD 21851",Worcester,CAFO,CHINH NGUYEN,,38.05344,-75.571731,3/6/2009,3/6/2009,114000,Chickens-not laying hens-dry,,,Registered,,7/12/2010,2009-CCD-0008,
,66828,8/31/2010,,,"6288 Statum Rd, Preston MD 21655",Caroline,CAFO,"CHITTLE SAYLOR, JR./IDLE HOUR FARM",,38.781576,-75.867264,8/16/2012,3/2/2009,65050,Chickens-not laying hens-dry,,,Registered,,3/21/2011,2009-CCD-0044,
,67250,5/19/2014,,,"8936 Cedar Lane Rd, Berlin MD 21811",Worcester,CAFO,CHRISTOPHER BRYAN WIDGEON/TRAILS END,,38.317821,-75.260162,,5/19/2014,63000,Chickens-not laying hens-dry,,,Registered,,11/7/2014,2014-CCD-0316,
,66803,11/15/2010,,,"25920 Shults Rd, Henderson MD 21640",Caroline,CAFO,CHRISTOPHER D HARRIS/HOME FARM,,39.05358,-75.84709,12/5/2013,3/6/2009,42800,Chickens-not laying hens-dry,,,Registered,,2/27/2014,2009-CCD-0318,
,136485,9/1/2010,,,"16343 Oakland Rd, Henderson MD 21640",Caroline,CAFO,CHRISTOPHER D. HARRIS/BALTIMORE CORNER FARM,,39.106828,-75.800205,12/5/2013,1/9/2012,50000,Chickens-not laying hens-dry,,,Registered,,2/27/2014,2012-CCD-0619,
,140060,9/2/2014,,,"6215 George Island Landing Rd, Stockton MD 21864",Worcester,CAFO,CHRISTOPHER L & ALLISON RIDDLEBERGER,,38.048987,-75.383739,9/30/2013,9/30/2013,82200,Chickens-not laying hens-dry,,,Registered,,10/28/2014,2013-CCD-0670,
,68891,10/2/2009,,,"4231 Paul Gumby Rd, Marion Station MD 21838",Somerset,CAFO,CHRISTOPHER LYONS/LYONS PRIDE FARMS,,37.99786,-75.770613,10/2/2009,10/2/2009,107600,Chickens-not laying hens-dry,,,Registered,,12/28/2011,2009-CCD-0379,
,68892,10/2/2009,,,"9458 Old Princess Anne Rd, Westover MD 21871",Somerset,CAFO,CHRISTOPHER LYONS/SOMERSET FARMS,,38.140207,-75.685937,10/2/2009,10/2/2009,162200,Chickens-not laying hens-dry,,,Registered,,5/31/2011,2009-CCD-0071,
,66530,1/13/2014,,,"415 Cosden Rd, Barclay MD 21607",Queen Anne's,CAFO,CHRISTOPHER WRIGHT FARM,,39.158566,-75.883823,,11/18/2013,82500,Chickens-not laying hens-dry,,,Registered,,3/3/2014,2009-CCD-0271,
,67247,2/22/2011,,,"14470 Backbone Rd, Eden MD 21822",Somerset,CAFO,CLARA LEE/SUN FARM,,38.277629,-75.61524,3/18/2009,3/2/2009,46000,Chickens-not laying hens-dry,,,Registered,,1/3/2010,2009-CCD-0207,
,67810,6/14/2011,,,"8749 Bethel Rd, Willards MD 21874",Wicomico,CAFO,CLAY R. LITTLETON/NO REGRETS AND STACY'S CHOICE FARMS,,38.430166,-75.355931,,2/26/2009,99500,Chickens-not laying hens-dry,,,Registered,,10/16/2013,2009-CCD-0141,
,138756,2/15/2013,,,"8575 Littleton Rd, Willards MD 21874",Wicomico,CAFO,CLAY R. LITTLETON/WIDE LOOP FARM,,38.424088,-75.336993,,10/16/2012,55000,Chickens-not laying hens-dry,,,Registered,,8/28/2013,2012-CCD-0662,
,66697,6/11/2012,,,"7186 Virgina Bowland Rd, Westover MD 21871",Somerset,CAFO,CLIFTON GORDON TAYLOR III/DEAD END FARM,,38.079435,-75.699313,,6/11/2012,150000,Chickens-not laying hens-dry,,,Registered,,5/20/2013,2012-CCD-0014,
,66995,9/27/2010,,,"29140 Hudson Corner Rd, Marion Station MD 21838",Somerset,CAFO,CLIFTON GORDON TAYLOR III/SUNSHINE FARM,,38.041418,-75.746369,,2/20/2009,70000,Chickens-not laying hens-dry,,,Registered,,5/22/2013,2009-CCD-0483,
,67177,12/20/2011,,,"10317 Bishopville Rd, Bishopville MD 21813",Worcester,CAFO,CLINTON W. DAVIDSON/BANKS FARM,,38.436574,-75.206337,2/26/2009,2/26/2009,112000,Chickens-not laying hens-dry,,,Registered,,8/10/2012,2009-CCD-0493,
,67908,9/17/2010,,,"22719 Thawley Rd, Denton MD 21629",Caroline,CAFO,"CLOPPER FARMS, INC. (FORMERLY MARC AND CINDY CLOPPER)",,38.880653,-75.915362,4/24/2009,6/10/2009,60000,Chickens-not laying hens-dry,,,Registered,,8/16/2011,2009-CCD-0372,
,67074,10/19/2010,,,"35710 Cobbs Hill Rd, Willards MD 21874",Wicomico,CAFO,COBBS HILL FARM,,38.423995,-75.371592,,9/21/2012,80000,Chickens-not laying hens-dry,,,Registered,,4/17/2013,2009-CCD-0487,
,67811,12/6/2013,,,"33270 Dublin Rd, Princess Anne MD 21853",Somerset,CAFO,"COTTMAN FARMS, INC.",,38.149501,-75.600218,,9/14/2012,105000,Chickens-not laying hens-dry,,,Registered,,4/11/2014,2009-CCD-0484,
,66823,4/11/2012,,,"25715 Three Bridges Rd, Federalsburg MD 21632",Caroline,CAFO,CURTIS WILLIN/HILL-N-DALE,,38.739885,-75.815243,7/2/2010,3/12/2009,84000,Chickens-not laying hens-dry,,,Registered,,11/5/2012,2009-CCD-0337,
,66975,11/5/2010,,,"4505 Maple Dam Rd, Cambridge MD 21613",Dorchester,CAFO,D & C ENTERPRISES INC.,,38.480306,-76.075038,9/12/2011,2/25/2009,35000,Chickens-not laying hens-dry,,,Registered,,8/11/2011,2009-CCD-0121,
,66804,1/3/2011,,,"22690 Havercamp Rd, Preston MD 21655",Caroline,CAFO,DALE HARRISON FARM,,38.708775,-75.919978,3/19/2009,3/2/2009,34800,Chickens-not laying hens-dry,,,Registered,,12/28/2011,2009-CCD-0208,
,132671,,,,"4756 Smithville Road, Federalsburg MD 21632",Caroline,MAFO,"DALE LESLIE WRIGHT, JR.",,38.737779,-75.763273,4/7/2014,11/29/2010,138000,Chickens-not laying hens-dry,,,Registered,,9/18/2014,2010-MCD-0573,
,66596,9/17/2012,,,"1816 Price Station Rd, Queen Anne MD 21623",Queen Anne's,CAFO,DANIEL C. HELLER,,39.083646,-75.93681,,9/17/2012,78000,Chickens-not laying hens-dry,,,Registered,,3/29/2013,2012-CCD-0110,
,66799,9/27/2010,,,"110 Ferrell Farm Lane, Henderson MD 21640",Caroline,CAFO,DANIEL FERRELL FARM,,39.08812,-75.851306,3/26/2009,2/19/2009,96000,Chickens-not laying hens-dry,,,Registered,,9/16/2011,2009-CCD-0095,
,67144,1/5/2010,,,"8475 New Hope Rd, Willards MD 21874",Wicomico,CAFO,DANIEL RAYNE/RAYNE ACRES,,38.420506,-75.357704,3/10/2009,3/10/2009,110000,Chickens-not laying hens-dry,,,Registered,,5/9/2011,2009-CCD-0017,
,66951,12/20/2010,,,"12591 Kibler Rd, Greensboro MD 21639",Caroline,CAFO,DANNY AND BOBBIE REED/WINTERHAWK FARM,,38.952265,-75.765761,2/27/2009,6/3/2010,82000,Chickens-not laying hens-dry,,,Registered,,4/18/2012,2010-CCD-0175,
,132828,3/2/2012,,,"8129 Hurleys Neck Rd, Mardela Springs MD 21837",Wicomico,CAFO,DAVID & REBECCA CALLOWAY/BAY BREEZE FARM,,38.418286,-75.804388,,12/20/2010,84000,Chickens-not laying hens-dry,,,Registered,,9/6/2013,2010-CCD-0446,
,130599,3/2/2012,,,"8640 Athol Rd, Mardela Springs MD 21837",Wicomico,CAFO,DAVID & REBECCA CALLOWAY/DAVID & BECKY'S FARM,,38.434896,-75.789867,,4/1/2010,140000,Chickens-not laying hens-dry,,,Registered,,9/6/2013,2010-CCD-0402,
,107521,7/29/2013,,,"7000 Blk Hynson Rd, Hurlock MD 21643",Dorchester,CAFO,DAVID BRAMBLE/BRAMBLE FARM,,38.686513,-75.844501,,7/9/2013,89600,Chickens-not laying hens-dry,,,Registered,,10/2/2013,2013-CCD-0659,
,67878,10/29/2009,,,"1218 Hope Rd, Centreville MD 21617",Queen Anne's,CAFO,DAVID CONLEY/HOPE TWO FARM,,39.041629,-75.98499,12/27/2011,3/10/2009,52000,Chickens-not laying hens-dry,,,Registered,,3/15/2012,2009-CCD-0325,
,67219,12/19/2013,,,"8339 Little Brown Rd, Salisbury MD 21804",Worcester,CAFO,DAVID E. NUSE SR. FARM,,38.271755,-75.592282,6/28/2010,3/2/2009,80000,Chickens-not laying hens-dry,,,Registered,,5/5/2014,2009-CCD-0209,
,67158,2/4/2011,,,"26657 Siloam Rd, Salisbury MD 21801",Wicomico,CAFO,DAVID G. POLLOCK/TEASPOON FARM,,38.325857,-75.693916,3/4/2009,3/4/2009,80000,Chickens-not laying hens-dry,,,Registered,,3/15/2012,2009-CCD-0284,
,66670,2/26/2009,,,"7569 Hayward Rd, Pocomoke City MD 21851",Worcester,CAFO,DAVID HOFFMAN,,38.088144,-75.585386,2/26/2009,2/26/2009,155000,Chickens-not laying hens-dry,,,Registered,,7/12/2010,2009-CCD-0005,
,67129,7/19/2012,,,"7018 Whiteley Rd, Federalsburg MD 21632",Caroline,CAFO,DAVID HOWARD,,38.681469, -75.808777,2/26/2009,2/26/2009,73500,Chickens-not laying hens-dry,,,Registered,,2/7/2014,2009-CCD-0494,
,66870,6/8/2011,,,"24715 Richardson Rd, Federalsburg MD 21632",Caroline,CAFO,DAVID HUBBLE/RAINBOW'S END FARM,,38.750508,-75.848735,8/19/2013,3/12/2009,90000,Chickens-not laying hens-dry,,,Registered,,11/4/2013,2009-CCD-0338,
,67813,7/8/2011,,,"25801 Bee Tree Rd, Henderson MD 21640",Caroline,CAFO,DAVID L. HARRIS,,39.075727,-75.802738,2/13/2013,2/27/2009,85000,Chickens-not laying hens-dry,,,Registered,,8/28/2013,2009-CCD-0176,
,129920,12/14/2009,,,"1717 Roberts Station Rd, Church Hill MD 21623",Queen Anne's,CAFO,DAVID M. CLARK III,,39.108844,-75.908499,,12/22/2009,72000,Chickens-not laying hens-dry,,,Registered,,9/16/2011,2009-CCD-0390,
,66986,11/17/2009,,,"26875 Johnson Creek Rd, Crisfield MD 21817",Somerset,CAFO,DAVID MACNEAL/SHELDARA FARM,,37.973282,-75.823974,3/27/2013,2/25/2009,54000,Chickens-not laying hens-dry,,,Registered,,5/20/2013,2009-CCD-0122,
,67225,8/6/2012,,,"3410 Redden Rd, Pocomoke City MD 21851",Worcester,CAFO,DAVID PILCHARD FARM,,38.064312,-75.50832,2/19/2009,8/1/2011,153000,Chickens-not laying hens-dry,,,Registered,,2/10/2013,2009-CCD-0480,
,67096,12/27/2011,,,"7738 Parsonsburg Rd, Parsonsburg MD 21849",Wicomico,CAFO,DAVID SHOCKLEY/HARDWAY FARM,,38.404198,-75.472373,3/2/2009,3/2/2009,116000,Chickens-not laying hens-dry,,,Registered,,6/29/2012,2009-CCD-0211,
,132605,8/27/2014,,,"435 Ebert Road, Union Bridge MD 21791",Carroll,CAFO,DAVID THOMAS PYLE/COW COMFORT INN DAIRY,,39.59318,-77.154896,9/3/2014,6/25/2013,365,Dairy Cattle,,,Registered,,10/28/2014,2013-CDC-0436,
,66943,3/15/2012,,,"12847 River Rd, Ridgely MD 21660",Caroline,CAFO,"DAVID TRIBBETT, JR./RIVER ROAD FARM",,38.959773,-75.856966,3/2/2009,3/2/2009,68000,Chickens-not laying hens-dry,,,Registered,,2/19/2013,2009-CCD-0212,
,67146,6/22/2012,,,"32791 Roy West Rd, Delmar MD 21875",Wicomico,CAFO,DAVID WEST/RUBY WEST,,38.443721,-75.473797,3/5/2014,2/26/2009,153000,Chickens-not laying hens-dry,,,Registered,,2/17/2013,2009-CCD-0162,
,129271,4/14/2011,,,"5971 Bethlehem Rd, Preston MD 21655",Caroline,CAFO,DAVID WILLIAM & MARGARET ANN ROGERS,,38.770431,-75.894172,9/18/2012,11/5/2009,50000,Chickens-not laying hens-dry,,,Registered,,10/16/2013,2009-CCD-0386,
,66954,9/17/2012,,,"9067 Bloxom Rd, Denton MD 21629",Caroline,CAFO,"DAVID WOOD/WOOD HAVEN,WOOD INSPIRED,WOOD ENTERPRISE",,38.85652,-75.885418,4/4/2013,9/4/2012,206000,Chickens-not laying hens-dry,,,Registered,,4/17/2013,2012-CCD-0496,
,66519,8/30/2010,,,"164 Deerfielde Farm Rd, Centreville MD 21617",Queen Anne's,CAFO,DEERFIELDE FARM,,39.074681,-76.048934,2/9/2012,3/2/2009,79900,Chickens-not laying hens-dry,,,Registered,,9/28/2011,2009-CCD-0228,
,67073,1/5/2011,,,"8540 Athol Rd, Mardela Springs MD 21837",Wicomico,CAFO,DENISE CALLOWAY/CLAY ISLAND FARM,,38.429612,-75.788207,3/4/2009,3/4/2009,100000,Chickens-not laying hens-dry,,,Registered,,3/15/2012,2009-CCD-0285,
,67039,4/5/2011,,,"28180 Waller Rd, Salisbury MD 21801",Wicomico,CAFO,DENNIS ADKINS/APPLETREE FARM,,38.454048,-75.634874,2/27/2009,2/27/2009,84700,Chickens-not laying hens-dry,,,Registered,,6/14/2013,2009-CCD-0177,
,67058,7/25/2011,,,"6981 Powellville Rd, Willards MD 21874",Wicomico,CAFO,DENNIS BRADFORD,,38.380234,-75.356255,3/5/2009,3/5/2009,58000,Chickens-not laying hens-dry,,,Registered,,10/11/2011,2009-CCD-0307,
,66849,2/25/2010,,,"4381 Nichols Rd, Federalsburg MD 21632",Caroline,CAFO,DENNIS C. NAGEL JR,,38.728906,-75.805246,3/5/2009,3/5/2009,99000,Chickens-not laying hens-dry,,,Registered,,4/11/2011,2009-CCD-0053,
,132635,2/25/2010,,,"5801 Laurel Grove Rd, Federalsburg MD 21632",Caroline,CAFO,DENNIS NAGEL/MIRIBROOK FARM,,38.766863,-75.840059,,11/22/2010,80000,Chickens-not laying hens-dry,,,Registered,,4/11/2011,2009-CCD-0054,
,66663,3/2/2009,,,"3667 Freedom town Rd, Crisfield MD 21817",Somerset,CAFO,DENNIS VIENS/CASA GRANDE FARM,,37.983101,-75.829223,3/2/2009,3/2/2009,195000,Chickens-not laying hens-dry,,,Registered,,3/21/2011,2009-CCD-0046,
,66520,7/7/2010,,,"723 Damsontown Rd, Queen Anne MD 21657",Queen Anne's,CAFO,DENNY FARM LLC,,38.973721,-75.96963,3/4/2009,3/4/2009,87500,Chickens-not laying hens-dry,,,Registered,,9/16/2011,2009-CCD-0286,
,129277,1/19/2012,,,"27039 Crisfield Marion Rd, Crisfield MD 21817",Somerset,CAFO,DONALD HOWARD FARM,,38.019864,-75.808805,,11/2/2009,75000,Chickens-not laying hens-dry,,,Registered,,4/11/2012,2009-CCD-0383,
,67045,10/20/2010,,,"7625 New Hope Rd, Willards MD 21874",Wicomico,CAFO,DONALD J. HUDSON/HITCHING POST FARM,,38.398341,-75.326124,,3/10/2009,43000,Chickens-not laying hens-dry,,,Registered,,9/26/2011,2009-CCD-0326,
,67152,12/27/2011,,,"31202 Dagsboro Rd, Salisbury MD 21804",Wicomico,CAFO,DONALD SHOCKLEY/DON-LIN,,38.417896,-75.530689,3/13/2009,3/13/2009,86800,Chickens-not laying hens-dry,,,Registered,,6/29/2012,2009-CCD-0341,
,66873,2/2/2012,,,"27264 Greenwood Rd, Denton MD 21629",Caroline,CAFO,DONNA WRIGHT/RUNNING ON EMPTY,,38.831133,-75.757658,2/27/2009,2/27/2009,96840,Chickens-not laying hens-dry,,,Registered,,4/10/2012,2009-CCD-0178,
,66669,12/6/2013,,,"14450 Reading Ferry Rd, Princess Anne MD 21853",Somerset,CAFO,DOUG READING,,38.27635,-75.755368,4/7/2014,9/19/2012,75000,Chickens-not laying hens-dry,,,Registered,,9/18/2014,2009-CCD-0527,
,67092,1/22/2013,,,"24688 Porter Mill Rd, Hebron MD 21830",Wicomico,CAFO,DOUGLAS E. GROVE/GROVE FARM,,38.418961,-75.759113,3/2/2009,3/2/2009,135400,Chickens-not laying hens-dry,,,Registered,,5/29/2013,2009-CCD-0214,
,67022,10/19/2012,,,"5027 River Rd, Hurlock MD 21643",Dorchester,CAFO,DOUGLAS JAMES CALLOWAY/GIT-R-DONE/R-BERRY ACRES,,38.659656,-75.823433,,9/18/2012,103200,Chickens-not laying hens-dry,,,Registered,,4/4/2014,2009-CCD-0498,
,68007,4/4/2011,,,"6893 Elmo Dryden Rd, Westover MD 21871",Somerset,CAFO,DZUNG CAO/DANNY & KENNY FARM,,38.07001,-75.656339,,7/23/2010,110000,Chickens-not laying hens-dry,,,Registered,,3/15/2012,2010-CCD-0179,
,66529,3/15/2013,,,"1622 Goldsboro Rd, Queen Anne MD 21607",Queen Anne's,CAFO,E. KEITH BOSTIC/PLEASANT VIEW FARM,,39.132865,-75.868092,2/13/2013,3/15/2013,187200,Chickens-not laying hens-dry,,,Registered,,5/20/2013,2009-CCD-0180,
,142503,4/15/2014,,,"3039 Jesterville Rd, Bivalve MD 21814",Wicomico,CAFO,EARL M.BEARDSLEY JR. / EARL BEARDSLEY FARM,,38.278606,-75.891,1/23/2014,1/23/2014,62000,Chickens-not laying hens-dry,,,Registered,,6/6/2014,2014-CCD-0689,
,67198,3/24/2011,,,"8429 Whaleyville Rd, Whaleyville MD 21872",Worcester,CAFO,ED EVANS FARM,,38.413856,-75.282227,3/2/2009,3/2/2009,55000,Chickens-not laying hens-dry,,,Registered,,4/11/2012,2009-CCD-2015,
,67830,3/7/2011,,,"5239 Taylor Rd, Snow Hill MD 21863",Worcester,CAFO,ED PHILLIPS FARM,,38.17337,-75.302155,2/26/2009,2/26/2009,52000,Chickens-not laying hens-dry,,,Registered,,9/3/2013,2009-CCD-0143,
,67831,7/23/2010,,,"9334 Evans Rd, Berlin MD 21811",Worcester,CAFO,EDWARD LEWTON WARREN/MOTEL CHIX,,38.320628,-75.237146,3/16/2009,3/16/2009,110000,Chickens-not laying hens-dry,,,Registered,,10/11/2011,2009-CCD-0345,
,67026,7/8/2014,,,"13291 Church Lane, Cordova MD 21625",Talbot,CAFO,EDWARD RHODES/NOBLE MEADOWS FARM,,38.916178, -76.011816,6/5/2014,2/26/2014,120000,Chickens-not laying hens-dry,,,Registered,,8/15/2014,2014-CCD-0027,
,67224,1/28/2014,,,"12913 Sheppards Crossing Rd, Whaleyville MD 21872",Worcester,CAFO,EDWARD T. PHILLIPS/EDWARD & LISA PHILLIPS FARM,,38.436046,-75.328503,,2/26/2009,68000,Chickens-not laying hens-dry,,,Registered,,4/21/2014,2009-CCD-0499,
,66846,3/5/2012,,,"5295 Federalsburg Hwy, Federalsburg MD 21632",Caroline,CAFO,EDWIN & DORIS MEREDITH,,38.75057,-75.787111,4/18/2013,2/26/2009,54000,Chickens-not laying hens-dry,,,Registered,,6/14/2013,2009-CCD-0144,
,67794,1/27/2012,,,"6189 American Corner Rd, Denton MD 21629",Caroline,CAFO,EDWIN COLLINS/BRISK WIND FARMS,,38.778101,-75.814135,4/17/2009,2/26/2009,60000,Chickens-not laying hens-dry,,,Registered,,4/30/2012,2009-CCD-0145,
,68053,5/29/2014,,,"2902 Payne Rd, Pocomoke City MD 21851",Worcester,CAFO,ELAINE MCNURE/SOUTH BRANCH FARM/MOE MONEY FARM,,38.004652,-75.528143,,3/23/2009,175500,Chickens-not laying hens-dry,,,Registered,,7/25/2014,2009-CCD-0352,
,66539,8/4/2011,,,"31350 Curtis Chapel Rd, Westover MD 21871",Somerset,CAFO,ELCEED FARMS INC.,,38.121494,-75.665444,3/6/2009,3/6/2009,100000,Chickens-not laying hens-dry,,,Registered,,3/9/2012,2009-CCD-0319,
,133393,7/13/2012,,,"4789 Howard Rd, Federalsburg MD 21632",Caroline,CAFO,ELIZABETH A. RICHARDSON/ROBERT R. RICHARDSON FARM,,38.738229,-75.799879,2/25/2011,2/25/2011,100000,Chickens-not laying hens-dry,,,Registered,,11/5/2012,2011-CCD-0460,
,66667,2/1/2011,,,"8227 Hayward Rd, Pocomoke City MD 21851",Worcester,CAFO,ELTON DRYDEN/CHAR-LEE FARM,,38.103902,-75.589914,10/26/2012,3/3/2009,57200,Chickens-not laying hens-dry,,,Registered,,11/6/2013,2009-CCD-0528,
,66521,3/2/2012,,,"719 Deep Landing Rd, Chestertown MD 21620",Queen Anne's,MAFO,ERIC R. PARDEE,,39.23614,-75.961498,,3/2/2012,226000,Chickens-not laying hens-dry,,,Registered,,5/20/2013,2012-MCD-0497,
,134834,1/25/2013,,,"10118 Augustine Herman Hwy, Chestertown MD 21620",Kent,CAFO,"FAIR HILL FARMS, INC",,39.257573,-76.063566,11/16/2012,7/5/2011,840,Dairy Cattle,,,Registered,,6/27/2014,2011-CDC0473,
,67090,7/3/2012,,,"3608 Allen Rd, Allen MD 21810",Wicomico,CAFO,FLEMING FARMS,,38.293977,-75.685043,3/2/2009,3/2/2009,66000,Chickens-not laying hens-dry,,,Registered,,2/7/2014,2009-CCD-0231,
,130156,2/7/2011,,,"1621 Price Station Road, Church Hill MD 21623",Queen Anne's,CAFO,FLINTROCK CORPORATION,,39.08809,-75.940088,1/5/2010,1/5/2010,160800,Chickens-not laying hens-dry,,,Registered,,12/28/2011,2010-CCD-0391,
,66801,,,,"4321 Lengrell Rd, Preston MD 21655",Caroline,MAFO,FORTUNE FLOCK,,38.696982,-75.890707,2/20/2014,3/5/2009,60000,Chickens-not laying hens-dry,,,Registered,,6/30/2014,2009-MCD-0545,
,67200,2/25/2013,,,"1324 Hillman Rd, Pocomoke City MD 21851",Worcester,CAFO,FUNNY FARM,,38.040759,-75.580742,,2/25/2013,73500,Chickens-not laying hens-dry,,,Registered,,8/28/2013,2013-CCD-0663,
,68729,6/22/2011,,,"5098 Cornstack Rd, Marion Station MD 21838",Somerset,CAFO,G W CROSWELL FARM,,38.02029,-75.689773,,3/4/2009,33000,Chickens-not laying hens-dry,,,Registered,,10/30/2013,2009-CCD-0543,
,114833,9/24/2013,,,"26191 Line Rd, Denton MD 21629",Caroline,MAFO,GAREY BENJAMIN BROWN,,38.822277,-75.795835,9/24/2013,9/24/2013,97000,Chickens-not laying hens-dry,,,Registered,,2/27/2014,2013-MCD-0671,
,102148,1/23/2014,,,"31867 Rehobeth Rd, Pocomoke City MD 21851",Somerset,CAFO,GARY BEAUCHAMP/JIMMY & JOY FARM,,38.062781,-75.647108,,3/5/2013,75000,Chickens-not laying hens-dry,,,Registered,,4/21/2014,2013-CCD-0657,
,66798,9/21/2010,,,"26475 Line Rd, Federalsburg MD 21632",Caroline,CAFO,GARY COX,,38.816765,-75.78864,3/3/2009,3/3/2009,44000,Chickens-not laying hens-dry,,,Registered,,6/6/2011,2009-CCD-0074,
,66865,3/29/2010,,,"26836 County Farm Rd, Denton MD 21629",Caroline,CAFO,GARY GEISEL/PEPPER RIDGE FARM,,38.886387,-75.771852,3/5/2009,3/5/2009,105000,Chickens-not laying hens-dry,,,Registered,,3/24/2011,2009-CCD-0052,
,66821,5/3/2010,,,"25465 Linhard Lane, Greensboro MD 21639",Caroline,CAFO,GEORGE G. BOWMAN/HIDDEN RIVER FARM,,38.942582,-75.821166,1/22/2013,2/26/2009,86000,Chickens-not laying hens-dry,,,Registered,,5/11/2012,2009-CCD-0146,
,67847,11/29/2010,,,"24510 Station Rd, Denton MD 21629",Caroline,CAFO,GEORGE K. STUTZMAN,,38.897758,-75.853431,11/29/2010,2/19/2009,88200,Chickens-not laying hens-dry,,,Registered,,9/29/2011,2009-CCD-0097,
,66840,1/11/2012,,,"24726 Schuyler Rd, Goldsboro MD 21636",Caroline,CAFO,GEORGE LANDIS/LONG DAY FARM,,39.037305,-75.844335,,3/4/2009,80000,Chickens-not laying hens-dry,,,Registered,,5/29/2012,2009-CCD-0288,
,67157,3/4/2013,,,"7128 Zion Rd, Federalsburg MD 21632",Caroline,CAFO,"GEORGE NAGEL/HOME, GEM & G & B FARMS",,38.692179,-75.824389,2/14/2014,2/26/2009,125400,Chickens-not laying hens-dry,,,Registered,,11/12/2013,2009-CCD-0500,
,67159,3/4/2009,,,"5033 Clark Canning House Rd, Hurlock MD 21643",Dorchester,CAFO,GEORGE SHERMAN/POOR BOYS FARM,,38.677172,-75.81019,4/26/2012,3/4/2009,41200,Chickens-not laying hens-dry,,,Registered,,7/12/2010,2009-CCD-0003,
,66643,6/23/2014,,,"11971 Drawbridge Rd, Princess Anne MD 21853",Somerset,CAFO,"GEORGE W BARNES, III",,38.211317, -75.782914,,3/1/2013,96000,Chickens-not laying hens-dry,,,Registered,,11/14/2014,2013-CCD-0529,
,67791,5/6/2013,,,"4161 Bestpitch Ferry Rd, Cambridge MD 21613",Dorchester,CAFO,GEORGE W. WEBER & SONS INC./BEST PITCH FARM,,38.453666,-76.021558,5/21/2009,6/10/2013,100000,Chickens-not laying hens-dry,,,Registered,,8/28/2013,2009-CCD-0217,
,67843,5/6/2013,,,"4115 Bestpitch Ferry Rd, Cambridge MD 21613",Dorchester,CAFO,GEORGE W. WEBER & SONS INC/GAMBLER ACRES FARM,,38.449177,-76.028002,5/21/2009,6/10/2013,40000,Chickens-not laying hens-dry,,,Registered,,8/28/2013,2009-CCD-0218,
,67111,8/2/2010,,,"32581 Mt Hermon Rd, Parsonsburg MD 21849",Wicomico,CAFO,GERALD ADKINS/ITTY BITTY FARM,,38.344626,-75.48401,3/4/2009,3/4/2009,83600,Chickens-not laying hens-dry,,,Registered,,9/16/2011,2009-CCD-0289,
,66642,2/22/2010,,,"10785 Old Princess Anne, Princess Anne MD 21852",Somerset,CAFO,GERARD DUMSHA/GO AWAY ACRES,,38.17737,-75.680097,2/17/2009,2/17/2009,114400,Chickens-not laying hens-dry,,,Registered,,1/21/2011,2009-CCD-0029,
,67848,6/7/2012,,,"33140 West Post Office Rd, Princess Anne MD 21853",Somerset,CAFO,GHAZANFFER ALI,,38.225188,-75.601641,,4/8/2009,180000,Chickens-not laying hens-dry,,,Registered,,9/26/2013,2009-CCD-0364,
,68072,12/19/2013,,,"4890 Drawbridge Rd, Cambridge MD 21613",Dorchester,CAFO,GHUMAN FARM LLC/JUTT FARM,,38.512098,-75.964975,11/8/2013,11/8/2013,136700,Chickens-not laying hens-dry,,,Registered,,5/12/2014,2013-CCD-0675,
,67249,4/7/2011,,,"9522 Mary Rd, Berlin MD 21811",Worcester,CAFO,GILBERT W. THOMPSON JR./BILL THOMPSON AND DOUBLE B FARMS,,38.330012,-75.182281,2/24/2009,2/24/2009,173600,Chickens-not laying hens-dry,,,Registered,,11/12/2013,2009-CCD-0115,
,67902,3/15/2010,,,"13768 Frank Cornish Rd, Eden MD 21822",Worcester,CAFO,GLENN S. AINS/OLD LEATHERBURY FARM,,38.25799,-75.669251,,3/2/2009,41000,Chickens-not laying hens-dry,,,Registered,,1/21/2011,2009-CCD-0033,
,68103,3/15/2010,,,"15050 Heron's Landing, Eden MD 21822",Worcester,CAFO,GLENN S. AINS/THE FARM @ HERON'S POND,,38.293345,-75.65256,3/2/2009,3/2/2009,89400,Chickens-not laying hens-dry,,,Registered,,1/21/2011,2009-CCD-0032,
,66802,12/2/2011,,,"6241 Todd Rd, Federalsburg MD 21632",Caroline,CAFO,GOLDSBOROUGH JAMES STAFFORD III,,38.777138,-75.747283,3/2/2009,3/2/2009,51000,Chickens-not laying hens-dry,,,Registered,,5/29/2012,2009-CCD-0219,
,23561,1/27/2010,,,"11974 Blacks Station Rd, Kennedyville MD 21645",Kent,CAFO,"GRAND VIEW FARM, LLC",,39.305832,-75.953572,,1/27/2010,2700,Swine < 55 lbs,,,Registered,,5/9/2011,2009-CSL-0018,
,137777,5/29/2012,,,"29935 Connelly Mill Rd, Delmar MD 21875",Wicomico,CAFO,"GREEN HOTELS, INC.",,38.42922,-75.574322,,5/29/2012,86200,Chickens-not laying hens-dry,,,Registered,,11/1/2012,2012-CCD-0613,
,67232,8/1/2011,,,"7431 Liberty Town Rd, Berlin MD 21811",Worcester,CAFO,GREGORY P. WILKINS/RUNAWAY FARM,,38.3075,-75.321699,7/27/2010,4/9/2009,160000,Chickens-not laying hens-dry,,,Registered,,10/14/2011,2009-CCD-0365,
,67155,12/12/2011,,,"31784 Fred Adkins Rd, Parsonsburg MD 21849",Wicomico,CAFO,"H & B FARMS, INC./ANGIE & CHRISTY ACRES",,38.389191,-75.510173,9/24/2010,3/11/2009,142000,Chickens-not laying hens-dry,,,Registered,,4/6/2012,2009-CCD-0331,
,67153,12/12/2011,,,"4144 Stockyard Rd, Eden MD 21822",Wicomico,CAFO,"H & B FARMS, INC./STOCKYARD FARM",,38.306689,-75.649509,9/24/2010,3/11/2009,55800,Chickens-not laying hens-dry,,,Registered,,4/6/2012,2009-CCD-0332,
,67258,11/6/2013,,,"1445 Boston Rd, Pocomoke City MD 21851",Worcester,CAFO,HAN KIM HOANG/VINA AND PHAN FARMS,,38.048853,-75.505612,11/26/2013,3/3/2009,170000,Chickens-not laying hens-dry,,,Registered,,2/7/2014,2009-CCD-0265,
,67143,9/22/2011,,,"9435 Melson Church Rd, Delmar MD 21875",Wicomico,CAFO,HANADI ELBAF/RANAND FARM,,38.450879,-75.477034,2/25/2009,2/25/2009,46700,Chickens-not laying hens-dry,,,Registered,,12/22/2011,2009-CCD-0123,
,66786,6/22/2012,,,"22295 Havercamp Rd, Preston MD 21655",Caroline,CAFO,HARLAN DAVIS/HOME AND ALBERT FARMS,,38.711528,-75.937014,3/2/2009,3/2/2009,94600,Chickens-not laying hens-dry,,,Registered,,10/30/2012,2009-CCD-0194,
,66805,4/12/2012,,,"24716 Auction Rd, Federalsburg MD 21632",Caroline,CAFO,HARMONY FARMS LLC,,38.766816,-75.809052,3/2/2009,3/2/2009,126,Dairy Cattle,,,Registered,,8/10/2012,2009-CCD-0220,
,66805,4/12/2012,,,"24716 Auction Rd, Federalsburg MD 21632",Caroline,CAFO,HARMONY FARMS LLC,,38.766816,-75.809052,3/2/2009,3/2/2009,154,Cattle - includes heifers,,,Registered,,8/10/2012,2009-CCD-0220,
,66817,2/11/2011,,,"26826 Baker Rd, Denton MD 21629",Caroline,CAFO,HARRY AND PATRICIA JONES/SON SHINE FARM,,38.907876,-75.775767,2/20/2009,2/20/2009,75000,Chickens-not laying hens-dry,,,Registered,,9/6/2013,2009-CCD-0099,
,67113,7/29/2013,,,"21208 Insley Dr, Tyaskin MD 21865",Wicomico,CAFO,HARRY J. WEST III,,38.316542,-75.880536,,7/29/2013,45900,Chickens-not laying hens-dry,,,Registered,,10/22/2013,2009-CCD-0226,
,133002,11/12/2010,,,"4055 Jesterville Rd, Tyaskin MD 21865",Wicomico,CAFO,"HARRY J. WEST, III/WEST ACRES",,38.306285,-75.870645,,1/6/2011,49000,Chickens-not laying hens-dry,,,Registered,,6/15/2012,2011-CCD-0450,
,133026,12/8/2010,,,"4440 Tyaskin Rd, Tyaskin MD 21865",Wicomico,CAFO,"HARRY J. WEST, JR./DOUBLE B FARM",,38.318401,-75.877465,,1/3/2011,46700,Chickens-not laying hens-dry,,,Registered,,6/15/2012,2011-CCD-0448,
,67874,3/4/2011,,,"25891 Three Bridges Rd, Federalsburg MD 21632",Caroline,CAFO,HARRY NAGEL/HAY JAY ACRES,,38.732153,-75.810391,4/12/2013,6/25/2009,60000,Chickens-not laying hens-dry,,,Registered,,6/14/2013,2009-CCD-0373,
,130446,10/26/2010,,,"12798 Crouse Mill Rd, Ridgely MD 21660",Caroline,CAFO,"HAVING FAITH FARM, LLC",,38.956772,-75.919848,1/26/2010,1/26/2010,90000,Chickens-not laying hens-dry,,,Registered,,6/29/2011,2009-CCD-0076,
,67201,3/12/2010,,,"5304 Heather Lane, Pocomoke City MD 21851",Worcester,CAFO,"HEATHER LANE FARM (#4,41,42,43)",,38.17107,-75.539734,3/2/2009,3/2/2009,108000,Chickens-not laying hens-dry,,,Registered,,10/11/2011,2009-CCD-0223,
,132687,10/20/2010,,,"3758 Poplar Neck Rd, Preston MD 21655",Caroline,CAFO,HENRY SPIES IV/TAKE-A-CHANCE,,38.714928,-75.94935,,12/2/2010,107000,Chickens-not laying hens-dry,,,Registered,,6/15/2012,2010-CCD-0439,
,66754,6/17/2010,,,"8225 Bowlend Rd, Pocomoke City MD 21851",Somerset,CAFO,HENRY TRAN/LOVE FARM,,38.106255,-75.57431,3/2/2009,3/2/2009,89000,Chickens-not laying hens-dry,,,Registered,,1/27/2012,2009-CCD-0221,
,67255,1/17/2012,,,"1502 Boston Rd, Pocomoke City MD 21851",Worcester,CAFO,HENRY TRAN/TWIN FARM,,38.049301,-75.505459,,3/2/2009,87000,Chickens-not laying hens-dry,,,Registered,,3/15/2012,2009-CCD-0514,
,67003,3/22/2010,,,"10477 Locust Point Rd, Princess Anne MD 21853",Somerset,CAFO,HERBERT C. VAN GINHOVEN INC,,38.168993,-75.789205,12/4/2012,11/2/2009,54400,Chickens-not laying hens-dry,,,Registered,,1/21/2011,2009-CCD-0034,
,67202,3/13/2010,,,"5603 Whitesburg Rd, Pocomoke City MD 21851",Worcester,CAFO,"HERITAGE BREEDERS, FARM #22",,38.162992,-75.538169,3/2/2009,3/2/2009,54000,Chickens-not laying hens-dry,,,Registered,,11/8/2011,2009-CCD-0222,
,67107,5/17/2010,,,"34000 Rounds Rd, Pittsville MD 21850",Wicomico,CAFO,HILAL-EL-BAF/HIND FARMS,,38.404318,-75.431311,2/23/2009,2/23/2009,131600,Chickens-not laying hens-dry,,,Registered,,9/12/2011,2009-CCD-0103,
,132766,2/9/2012,,,"5435 Cokesbury Rd, Rhodesdale MD 21659",Dorchester,CAFO,HILMAR HELGASON/HELGASON FARM,,38.593593,-75.776452,3/27/2013,12/6/2010,50000,Chickens-not laying hens-dry,,,Registered,,5/20/2013,2010-CCD-0442,
,134575,2/26/2014,,,"31093 Olde Fruitland Rd, Salisbury MD 21804",Wicomico,CAFO,HOA N. TRAN/FRUITLAND FARM (PROPOSED),,38.305217,-75.535697,,6/14/2011,112999,Chickens-not laying hens-dry,,,Registered,,9/23/2011,2011-CCD-0471,
,66772,7/29/2013,,,"7129 Gordy Rd, Pocomoke City MD 21851",Worcester,CAFO,HONEYSUCKLE FARM,,38.080037,-75.646953,,10/17/2012,108000,Chickens-not laying hens-dry,,,Registered,,10/30/2013,2009-CCD-0531,
,140589,9/30/2013,,,"7248 Old Westover Marion Rd, Westover MD 21838",Somerset,CAFO,"HORACE L. MARSHALL, JR./PINEAPPLE WILLIES",,38.079726,-75.711708,,8/14/2013,65000,Chickens-not laying hens-dry,,,Registered,,2/7/2014,2013-CCD-0661,
,22941,4/12/2010,,,"11471 Augustine Herman Hwy, Kennedyville MD 21645",Kent,CAFO,"HORIZON ORGANIC DAIRY, LLC",,39.290752,-76.009476,12/17/2012,3/28/2008,493,Dairy Cattle,,,Registered,,3/21/2013,2006-CDC-0083,
,67961,,,,"5549 Indiantown Rd, Rhodesdale MD 21659",Dorchester,MAFO,HOWARD HARDING AND BROOKVIEW FARMS,,38.56903,-75.7891,4/15/2014,2/26/2009,135800,Chickens-not laying hens-dry,,,Registered,,7/18/2014,2009-MCD-0506,
,67072,1/3/2012,,,"32171 Shavox Rd, Salisbury MD 21804",Wicomico,CAFO,HYUNG LYUL CHOI/CHIOCE & SEON FARMS,,38.360556,-75.497156,2/23/2009,2/23/2009,130000,Chickens-not laying hens-dry,,,Registered,,5/29/2012,2009-CCD-0104,
,89751,4/27/2012,,,"14335 Paradise Church Rd, Hagerstown MD 21742",Washington,MAFO,ISAAC E. MARTIN/ FARM,,39.708159,-77.694603,3/5/2013,4/27/2012,90,Dairy Cattle,,,Registered,,9/3/2013,2012-MDD-0618,
,89751,4/27/2012,,,"14335 Paradise Church Rd, Hagerstown MD 21742",Washington,MAFO,ISAAC E. MARTIN/ FARM,,39.708159,-77.694603,3/5/2013,4/27/2012,9500,Ducks - liquid manure,,,Registered,,9/3/2013,2012-MDD-0618,
,22200,12/26/2013,,,"605 Sassafras Rd, Warwick MD 21912",Cecil,CAFO,"ISE AMERICA, INC. - COMPANY 15 LAYERS",,39.399483,-75.801907,2/23/2012,5/19/2011,950847,Chickens-not laying hens-dry,,,Registered,,6/9/2014,2011-CLH-0468,
,134865,12/26/2013,,,"680 Wards Hill Road, Warwick MD 21912",Cecil,CAFO,"ISE AMERICA, INC.- COMPANY 15 PULLETS",,39.39391,-75.812084,2/23/2012,7/12/2011,249000,Laying hens - dry manure,,,Registered,,6/10/2014,2011-CLH-0475,
,22189,12/26/2013,,,"1526 Cecilton-Warwick Rd, Warwick MD 21913",Cecil,CAFO,"ISE AMERICA, INC.- COMPANY 6 LAYERS",,39.408433,-75.807085,2/23/2012,7/12/2011,787714,Laying hens - dry manure,,,Registered,,6/9/2014,2011-CLH-0476,
,134866,12/26/2013,,,"33235 Walnut Tree Rd, Millington MD 21651",Kent,CAFO,"ISE AMERICA, INC.- RED BIRD COMPANY 2 LAYERS",,39.285458,-75.80999,2/23/2012,7/12/2011,537696,Laying hens - dry manure,,,Registered,,6/10/2014,2011-CLH-0477,
,130331,12/26/2013,,,"33179 Walnut Tree Rd, Millington MD 21651",Kent,CAFO,"ISE AMERICA, INC.- RED BIRD COMPANY 2 PULLETS",,39.284134, -75.808828,2/23/2012,5/19/2011,253128,Laying hens - dry manure,,,Registered,,6/10/2014,2011-CLH-0685,
,66959,8/13/2010,,,"30268 Morgnec Rd, Millington MD 21651",Kent,CAFO,J. ANDREW CHANCE,,39.277627,-75.918541,3/16/2009,3/3/2009,47000,Chickens-not laying hens-dry,,,Registered,,9/16/2011,2009-CCD-0266,
,66831,8/23/2010,,,"6502 Federalsburg Hwy, Denton MD 21629",Caroline,CAFO,J. DONALD DULIN,,38.782918,-75.789784,3/2/2009,3/2/2009,60000,Chickens-not laying hens-dry,,,Registered,,8/16/2011,2009-CCD-0224,
,67842,9/2/2010,,,"5110 Stone Boundary Rd, Cambridge MD 21613",Dorchester,CAFO,J. VINSON SPIES/FOX RUN/ LITTLE BLACKWATER,,38.523553,-76.049735,,3/12/2014,168000,Chickens-not laying hens-dry,,,Registered,,6/9/2014,2014-CCD-0501,
,66818,9/6/2008,,,"19003 Templeville Rd, Marydel MD 21649",Caroline,CAFO,JACK E. HOLT/HOLT FARM,,39.127594,-75.773046,2/27/2009,2/27/2009,131000,Chickens-not laying hens-dry,,,Registered,,5/31/2011,2009-CCD-0069,
,66819,9/6/2008,,,"3024 Barclay Rd3211 Barclay Rd, Marydel MD 21649",Caroline,CAFO,JACK E. HOLT/RH 1 & RH 2 FARMS,,39.133916,-75.797934,,2/27/2009,311000,Chickens-not laying hens-dry,,,Registered,,5/31/2011,2009-CCD-0070,
,67881,6/8/2010,,,"13135 Hidden Acres Ln, Bishopville MD 21813",Worcester,CAFO,"JACOBS FARM, INC",,38.442596,-75.244278,,3/4/2009,60000,Chickens-not laying hens-dry,,,Registered,,8/13/2012,2009-CCD-0290,
,67032,11/22/2011,,,"32893 Reeses Landing Rd, Cordova MD 21625",Talbot,CAFO,"JADWINS FARM, LLC",,38.840077,-75.933547,3/2/2009,8/5/2011,112000,Chickens-not laying hens-dry,,,Registered,,1/31/2012,2011-CCD-0230,
,66640,2/4/2011,,,"28893 L Q Powell Rd, Marion MD 21838",Somerset,CAFO,"JAKOB WALTER, JR./FIVE J'S FARM",,38.013823,-75.753196,3/9/2009,3/4/2009,132200,Chickens-not laying hens-dry,,,Registered,,12/28/2011,2009-CCD-0291,
,66829,8/2/2010,,,"26738 Chipmans Lane, Federalsburg MD 21632",Caroline,CAFO,JAMES A. GARGANI,,38.75924,-75.780774,9/10/2012,3/3/2009,164000,Chickens-not laying hens-dry,,,Registered,,1/21/2011,2009-CCD-0030,
,67432,8/26/2013,,,"7614 Scotland Rd, Snow Hill MD 21863",Worcester,CAFO,JAMES A. KURTZ/KURTZ FARM,,38.177914,-75.30731,8/26/2013,3/3/2009,56000,Chickens-not laying hens-dry,,,Registered,,6/30/2014,2009-CCD-0268,
,131145,4/20/2012,,,"31421 Shavox Rd, Salisbury MD 21804",Wicomico,CAFO,JAMES BRUNK/BRUNKS BIRDS,,38.357879,-75.523016,6/7/2010,6/7/2010,203000,Chickens-not laying hens-dry,,,Registered,,10/30/2013,2010-CCD-0410,
,67150,7/8/2011,,,"5468 Archie Jones Rd, Willards MD 21874",Wicomico,CAFO,JAMES H. JONES/SOUTH 50 FARM,,38.34027,-75.360756,2/27/2009,2/27/2009,45000,Chickens-not laying hens-dry,,,Registered,,7/29/2013,2009-CCD-0182,
,67207,2/25/2009,,,"5634 Onley Rd, Girdletree MD 21829",Worcester,CAFO,JAMES J. SELBY/KEEPING THE FAITH FARM,,38.09388,-75.405743,2/25/2009,2/25/2009,128000,Chickens-not laying hens-dry,,,Registered,,5/9/2011,2009-CCD-0026,
,67138,6/11/2010,,,"200 Shady Farm Lane, Centreville MD 21617",Queen Anne's,CAFO,JAMES L. KELBAUGH,,39.098921,-76.080669,2/29/2012,3/18/2009,104800,Chickens-not laying hens-dry,,,Registered,,6/27/2012,2009-CCD-0348,
,132509,10/5/2010,,,"1108 Starr Rd, Centreville MD 21617",Queen Anne's,CAFO,JAMES MICHAEL CLOUGH JR. FARM,,38.983883,-76.020261,6/25/2014,11/1/2010,42000,Chickens-not laying hens-dry,,,Registered,,9/18/2014,2010-CCD-0433,
,129378,5/5/2010,,,"33918 Rounds Rd, Pittsville MD 21850",Wicomico,CAFO,JAMES O CANDY/ROUNDS ROAD FARM,,38.404526,-75.434462,,11/10/2009,61000,Chickens-not laying hens-dry,,,Registered,,9/16/2011,2009-CCD-0388,
,68004,2/25/2011,,,"32976 Dublin Rd, Princess Anne MD 21853",Somerset,CAFO,JAMES R. BRUMMITT/R & L FARM,,38.15694,-75.608291,3/13/2009,2/27/2009,105000,Chickens-not laying hens-dry,,,Registered,,6/14/2013,2009-CCD-0435,
,66740,4/19/2013,,,"3171 William Maddox Rd, Crisfield MD 21817",Somerset,CAFO,JAMES RANDY LAIRD,,37.971025,-75.828213,,9/17/2012,72000,Chickens-not laying hens-dry,,,Registered,,10/30/2013,2009-CCD-0552,
,67884,,,,"6990 Quantico Rd, Hebron MD 21830",Wicomico,CAFO,JAMES RYAN BURTON,,38.387222,-75.730247,,11/18/2014,155000,Chickens-not laying hens-dry,,,Registered,,11/18/2014,2009-CCD-0234,
,67023,7/29/2010,,,"31738 Geib Rd, Cordova MD 21625",Talbot,CAFO,JAMES S. HARRISON/HARRISON'S HAVEN,,38.853403,-75.959213,3/13/2009,2/26/2009,96000,Chickens-not laying hens-dry,,,Registered,,9/12/2011,2009-CCD-0082,
,130380,7/15/2010,,,"5926 Eldorado-Federalsburg Rd, Rhodesdale MD 21659",Dorchester,CAFO,JAMES W. PHILLIPS III/THIZ IZ IT FARM,,38.593935,-75.784817,3/3/2010,3/3/2010,60000,Chickens-not laying hens-dry,,,Registered,,5/31/2011,2009-CCD-0068,
,66862,4/9/2009,,,"5517 Hawkeye Rd, East New Market MD 21631",Dorchester,CAFO,"JAMES W. PHILLIPS, JR./PAIGES CHICKS, GLUCKHIEM FARM & NANA'S & TANNER'S NEST",,38.561429,-75.920135,6/4/2013,4/9/2009,147000,Chickens-not laying hens-dry,,,Registered,,9/16/2013,2009-CCD-0366,
,67986,5/4/2011,,,"6705 Elmo Dryden Rd, Westover MD 21871",Somerset,CAFO,JASON DRYDEN FARMS INC./POP POP ELMO FARM,,38.064424,-75.659201,3/6/2009,3/6/2009,180000,Chickens-not laying hens-dry,,,Registered,,7/28/2010,2009-CCD-0015,
,67209,2/9/2011,,,"2018 Boston Rd, Pocomoke City MD 21851",Worcester,CAFO,JASON LAMBERTSON/AMEN CORNER/MILLENNIUM/DIANE LAMBERTSON FARMS,,38.063111,-75.504133,3/18/2009,3/18/2009,179000,Chickens-not laying hens-dry,,,Registered,,5/22/2013,2009-CCD-0349,
,67136,9/12/2011,,,"720 Hall Rd, Sudlersville MD 21668",Queen Anne's,CAFO,JASON LARRY SHEUBROOKS/JACA FARM,,39.141286,-75.936107,7/2/2010,2/27/2009,71800,Chickens-not laying hens-dry,,,Registered,,12/27/2012,2009-CCD-0183,
,139686,8/25/2014,,,"710 Brick School House Rd, Centreville MD 216172535",Queen Anne's,CAFO,JAY A KINNAMON,,39.095349, -76.020687,8/25/2014,6/27/2013,85000,Chickens-not laying hens-dry,,,Registered,,10/28/2014,2013-CCD-0680,
,132222,12/28/2012,,,"5324 Rhodesdale Vienna Rd, Vienna MD 21869",Dorchester,MAFO,JB & BRAD MURPHY/BELLVIEW FARM (PROPOSED),,38.549279,-75.828812,11/17/2010,9/28/2010,252000,Chickens-not laying hens-dry,,,Registered,,9/23/2011,2010-MCD-0572,
,66982,9/4/2013,,,"6605 Old Westover Rd, Westover MD 21871",Somerset,CAFO,JEFF HOWARD/ROCKY ACRES,,38.062553,-75.701683,,9/11/2012,82000,Chickens-not laying hens-dry,,,Registered,,4/25/2014,2009-CCD-0012A,
,66703,6/28/2010,,,"5280 Whittington Rd, Marion MD 21838",Somerset,CAFO,JEFF TRUITT/BET-HARD FARM,,38.026733,-75.738173,,3/4/2009,65000,Chickens-not laying hens-dry,,,Registered,,9/16/2013,2009-CCD-0544,
,67431,10/28/2010,,,"4425 Blink Horn Rd, Hurlock MD 21643",Dorchester,MAFO,JEFFREY BLANNER/VIC'S CHIX,,38.656838,-75.885564,,5/28/2009,66000,Chickens-not laying hens-dry,,,Registered,,12/6/2013,2009-MCD-0562,
,66518,2/27/2012,,,"1136 Dudley Corners Rd, Millington MD 21651",Kent,CAFO,JENNIFER J. KUNES/CHICK-A-DEE-DOO-DAH,,39.211835,-75.90797,3/13/2009,3/13/2009,70000,Chickens-not laying hens-dry,,,Registered,,8/10/2012,2009-CCD-0342,
,130469,12/23/2013,,,"3680 Worcester Hwy, Snow Hill MD 21863",Worcester,CAFO,JERRY LAMBERTSON FARM,,38.139664, -75.423281,,8/29/2012,85000,Chickens-not laying hens-dry,,,Registered,,4/11/2014,2012-CCD-0502,
,67179,12/23/2013,,,"4735 Owl Hollow Lane, Pocomoke City MD 21851",Worcester,CAFO,JERRY LAMBERTSON/B & B FARM,,38.083419,-75.440801,,8/29/2012,77200,Chickens-not laying hens-dry,,,Registered,,4/11/2014,2009-CCD-0503,
,66934,8/3/2011,,,"6050 Dion Rd, Federalsburg MD 21632",Caroline,CAFO,"JESTER FARMS, LLC",,38.771455,-75.757722,9/20/2010,3/3/2009,152900,Chickens-not laying hens-dry,,,Registered,,2/21/2012,2009-CCD-0269,
,67880,8/29/2011,,,"32061 Melson Rd, Delmar MD 21875",Wicomico,CAFO,JIN KAHNG LEE/J.K. FARM,,38.441963,-75.500484,,2/26/2009,75000,Chickens-not laying hens-dry,,,Registered,,3/9/2012,2009-CCD-0148,
,67916,12/20/2011,,,"5813 Forest Grove Rd, Parsonsburg MD 21849",Wicomico,CAFO,JIN S. HEO/MATTHEW FARM,,38.351384,-75.466779,,3/2/2009,110000,Chickens-not laying hens-dry,,,Registered,,4/6/2012,2009-CCD-0229,
,130641,11/21/2011,,,"2535 Lakesville Crapo Rd, Crapo MD 21626",Dorchester,CAFO,JIN YONG KIM/JOON'S FARM,,38.320129,-76.119704,,3/11/2010,45000,Chickens-not laying hens-dry,,,Registered,,6/15/2012,2010-CCD-0401,
,66755,7/29/2011,,,"32552 West Post Office Rd, Princess Anne MD 21853",Somerset,CAFO,"JO AND E ENTERPRISES, INC./MAGNOLIA MEADOWS",,38.222447,-75.585586,3/13/2009,3/13/2009,173000,Chickens-not laying hens-dry,,,Registered,,3/28/2014,2009-CCD-0343,
,66968,1/20/2010,,,"6546 Eldorado Rd, Federalsburg MD 21632",Caroline,CAFO,JOHN & ALISON TAYLOR/BRADLEY'S MEADOW,,38.648732,-75.768297,3/2/2009,3/2/2009,54400,Chickens-not laying hens-dry,,,Registered,,1/21/2011,2009-CCD-0035,
,66542,12/28/2010,,,"184 Stowman Farm Lane, Queen Anne MD 21617",Queen Anne's,CAFO,JOHN CANNON/STOWMAN FARM,,39.087619,-76.056327,3/25/2009,3/4/2009,129000,Chickens-not laying hens-dry,,,Registered,,5/31/2011,2009-CCD-0067,
,133256,,,,"6028 Lone Pine Rd, Rhodesdale MD 21659",Dorchester,COC,JOHN KEVIN BRADLEY/JAMES PAYNE FARM,,38.604319,-75.740018,,10/1/2012,,,,,Certification of Conformance (See AFO Webpage),,,2012-AFO-0574,41183
,66955,11/26/2012,,,"11711 Duddley Chance Rd, Galena MD 21635",Kent,CAFO,JOHN LOUIS CHANCE & B & L FARM,,39.299687,-75.864579,2/26/2009,2/26/2009,57000,Chickens-not laying hens-dry,,,Registered,,3/29/2013,2009-CCD-0139,
,66967,1/3/2014,,,"4825 Maple Dam Rd, Cambridge MD 21613",Dorchester,CAFO,JOHN LUTHY/BIG PECKERS/RED ROOST,,38.508581,-76.082417,6/3/2014,6/6/2014,240000,Chickens-not laying hens-dry,,,Registered,,7/18/2014,2014-CCD-0504,
,67220,3/22/2010,,,"1826 Colona Rd, Pocomoke City MD 21851",Worcester,CAFO,JOHN P. KELLY/PEBBLE BRANCH/OFF OX/WAGRAMS FARMS,,38.004538,-75.570283,,3/20/2009,242000,Chickens-not laying hens-dry,,,Registered,,1/21/2011,2009-CCD-0036,
,66541,4/2/2009,,,"201Carville Lane, Centreville MD 21617",Queen Anne's,CAFO,JOHN SCOTT DULIN/S&K FARM,,39.041495,-76.001433,8/6/2013,2/24/2009,120000,Chickens-not laying hens-dry,,,Registered,,10/18/2013,2009-CCD-0116,
,68145,1/23/2013,,,"28938 River Rd, Millington MD 21651",Kent,CAFO,JONAS STOLTZFUS- WINDHILL FARM,,39.260096,-75.962882,,6/4/2009,135000,Chickens-not laying hens-dry,,,Registered,,5/29/2013,2009-CCD-0371,
,67095,9/24/2010,,,"34756 Casher Wells Rd, Pittsville MD 21850",Wicomico,CAFO,JONG KIL WON/HALLELUJAH FARM,,38.405311,-75.405704,3/10/2009,2/25/2009,120000,Chickens-not laying hens-dry,,,Registered,,10/14/2011,2009-CCD-0124,
,67182,2/8/2013,,,"4753 Big Mill Rd, Stockton MD 21864",Worcester,CAFO,JOSEPH E. CHISHOLM JR./BIG MILL POND FARM,,38.020328,-75.455061,,2/8/2013,65400,Chickens-not laying hens-dry,,,Registered,,5/15/2013,2013-CCD-0547,
,67134,9/22/2010,,,"5704 Massey Crossing Rd, Willards MD 21874",Wicomico,CAFO,JUNG RAK PARK/PARK'S FARM,,38.346446,-75.336138,2/25/2009,2/25/2009,74000,Chickens-not laying hens-dry,,,Registered,,9/26/2011,2009-CCD-0125,
,67046,8/3/2011,,,"34767 Tingle Rd, Pittsville MD 21850",Wicomico,CAFO,KAREN WHITE BAILEY/FRANK BAILEY FARM,,38.432958,-75.404538,3/2/2009,3/2/2009,49000,Chickens-not laying hens-dry,,,Registered,,10/11/2011,2009-CCD-0232,
,67792,10/21/2013,,,"35318 Wango Rd, Pittsville MD 21850",Wicomico,CAFO,KATHRYN M. LE FARM,,38.323372,-75.390915,,10/21/2013,183000,Chickens-not laying hens-dry,,,Registered,,12/24/2013,2013-CCD-0184,
,141866,9/29/2014,,,"10131 Arden Station Rd, Princess Anne MD 21853",Somerset,CAFO,KATHY A. GREEN/FULTON ACRES FARM,,38.159172,-75.665758,,10/31/2013,79800,Chickens-not laying hens-dry,,,Registered,,11/17/2014,2013-CCD-0674,
,67890,1/3/2013,,,"8276 Ironshire Rd, Berlin MD 21811",Worcester,CAFO,KEITH LITTLETON/K & M FARM,,38.31575,-75.295509,,4/22/2009,72000,Chickens-not laying hens-dry,,,Registered,,3/13/2014,2009-CCD-0561,
,66743,4/14/2011,,,"29326 Revells Neck Rd, Westover MD 21871",Somerset,CAFO,"KEN BLEVINS FARM, INC",,38.14956,-75.737151,3/3/2009,3/3/2009,136000,Chickens-not laying hens-dry,,,Registered,,9/14/2012,2009-CCD-0270,
,67960,11/18/2011,,,"8161 Libertytown Rd, Berlin MD 21811",Worcester,CAFO,KEN LITTLETON JR./PLUM CRAZY/ GONE NUTS/ DINKY PLACE,,38.32703,-75.293916,6/26/2009,3/10/2009,265000,Chickens-not laying hens-dry,,,Registered,,8/10/2012,2009-CCD-0555,
,67892,3/14/2013,,,"5756 American Corner Rd, Federalsburg MD 21632",Caroline,CAFO,KENNETH FISHELL JR.,,38.765511,-75.820636,3/14/2013,3/14/2013,55000,Chickens-not laying hens-dry,,,Registered,,7/31/2014,2013-CCD-0553,
,130043,12/11/2013,,,"26100 Auction Rd, Federalsburg MD 21632",Caroline,CAFO,KENNETH H. FISHELL SR.,,38.75671,-75.798428,,1/15/2013,60000,Chickens-not laying hens-dry,,,Registered,,7/31/2014,2010-CCD-0566,
,66833,8/13/2009,,,"25999 Auction Rd, Federalsburg MD 21632",Caroline,CAFO,KEVIN RUSSELL FISHELL/K-RUSS FARM,,38.759073,-75.80501,5/13/2014,1/14/2010,64000,Chickens-not laying hens-dry,,,Registered,,6/30/2014,2009-CCD-0515,
,99542,2/11/2014,,,"8855 Ironshire Station Rd, Berlin MD 21811",Worcester,CAFO,KIJAE KIM / KIM FARM (NEW CONSTRUCTION),,38.299344, -75.263214,,9/10/2013,106000,Chickens-not laying hens-dry,,,Registered,,4/21/2014,2013-CCD-0667,
,23560,6/25/2010,,,"795 Fire Tower Rd, Colora MD 21917",Cecil,CAFO,"KILBYS, INC.",,39.659004,-76.085731,,6/25/2010,600,Dairy Cattle,,,Registered,,10/7/2013,2010-CDC-0413,
,133508,9/10/2013,,,"11045 Harry Riggin Rd, Princess Anne MD 21853",Somerset,CAFO,KIMBERLY G. HORST/GREENWOOD ACRES FARM,,38.183029,-75.553533,,5/14/2013,96300,Chickens-not laying hens-dry,,,Registered,,12/26/2013,2013-CCD-0462,
,67228,1/31/2011,,,"2638 Payne Rd, Pocomoke City MD 21851",Worcester,CAFO,KIMBERLY PRUITT/PRUITT FARM,,38.015508,-75.532075,2/17/2009,2/17/2009,118400,Chickens-not laying hens-dry,,,Registered,,12/5/2011,2009-CCD-0087,
,139265,2/28/2014,,,"32221 Perryhawkin Rd, Princess Anne MD 21853",Somerset,CAFO,KINGSWOOD FARM INC./KATHCARR FARM,,38.186292, -75.640911,4/16/2012,10/4/2012,54000,Chickens-not laying hens-dry,,,Registered,,10/30/2014,2012-CCD-0688,
,66773,2/28/2014,,,"33091 Perryhawkin Rd, Princess Anne MD 21853",Somerset,CAFO,KINGSWOOD FARM INC./MIKE KING FARM,,38.175545,-75.599703,4/16/2012,10/4/2012,48000,Chickens-not laying hens-dry,,,Registered,,10/30/2014,2012-CCD-0532,
,67189,7/15/2011,,,"6083 Snow Hill Rd, Snow Hill MD 21863",Worcester,CAFO,KIRK CARMEAN FARM,,38.205117,-75.435731,2/25/2009,2/25/2009,76000,Chickens-not laying hens-dry,,,Registered,,12/6/2012,2009-CCD-0126,
,68151,4/20/2011,,,"8239 Newark Rd, Newark MD 21841",Worcester,CAFO,KUNWOO LEE FARM,,38.24821,-75.298538,,3/2/2009,107300,Chickens-not laying hens-dry,,,Registered,,7/24/2014,2009-CCD-0233,
,66949,12/23/2013,,,"4969 Howard Rd, Federalsburg MD 21632",Caroline,CAFO,"KWW, LLC/GARFIELD R. WATSON/JACK RABBIT",,38.743367,-75.797666,,5/14/2013,92000,Chickens-not laying hens-dry,,,Registered,,11/12/2013,2013-CCD-0047,
,99372,2/25/2013,,,"27618 Substation Rd, Denton MD 21629",Caroline,CAFO,LANCE E. BROWN / LANCE BROWN FARM,,38.844528,-75.741198,,1/15/2013,126000,Chickens-not laying hens-dry,,,Registered,,6/14/2013,2013-CCD-0645,
,67927,1/9/2014,,,"31831 Peggy Neck Rd, Eden MD 21822",Somerset,CAFO,LARRY JOHNSTON/MILLPOINT FARM,,38.254957,-75.64878,9/30/2010,2/26/2009,257000,Chickens-not laying hens-dry,,,Registered,,7/24/2014,2009-CCD-0155,
,130810,9/6/2011,,,"3990 Laurel Grove Road, Federalsburg MD 21632",Caroline,CAFO,LARRY NAGEL FARM,,38.715817,-75.806562,4/5/2010,4/5/2010,41000,Chickens-not laying hens-dry,,,Registered,,12/30/2011,2010-CCD-0404,
,68668,4/25/2014,,,"2622 Bunting Rd, Pocomoke City MD 21851",Worcester,CAFO,"LARRY STERLING/BUNTING FARM, BIG BOY FARM, LARRY STERLING FARM, POPS FARM",,38.010283,-75.535873,2/20/2009,2/20/2009,340000,Chickens-not laying hens-dry,,,Registered,,5/9/2011,2009-CCD-0019,
,68728,2/4/2011,,,"35094 Wango Rd, Pittsville MD 21850",Wicomico,CAFO,LAWRENCE A. LEMBECK/FAWN FARM,,38.317294,-75.396484,9/3/2009,9/3/2009,77000,Chickens-not laying hens-dry,,,Registered,,12/28/2011,2009-CCD-0377,
,67001,1/6/2014,,,"32071 Mitchell Rd, Princess Anne MD 21853",Somerset,CAFO,LAWRENCE C THOMAS INC,,38.154498, -75.638347,3/4/2009,7/22/2010,41600,Chickens-not laying hens-dry,,,Registered,,7/31/2014,2009-CCD-0417,
,66842,9/20/2010,,,"28268 Bridgeville Rd, Federalsburg MD 21632",Caroline,CAFO,LAWRENCE JOHNSON,,38.70538,-75.727426,3/13/2014,3/19/2009,50000,Chickens-not laying hens-dry,,,Registered,,11/5/2012,2009-CCD-0346,
,67055,3/26/2009,,,"35579 Poplar Neck Rd, Willards MD 21874",Wicomico,CAFO,LEE RICHARDSON/BLIZZARD & RAILROAD FARM,,38.39981,-75.378213,4/26/2012,3/3/2009,179600,Chickens-not laying hens-dry,,,Registered,,9/3/2013,2009-CCD-0272,
,132767,4/19/2013,,,"28155 Comegys Rd, Kennedyville MD 21645",Kent,CAFO,LELAND R. TROYER,,39.287619,-75.995884,5/10/2012,12/3/2010,60000,Chickens-not laying hens-dry,,,Registered,,6/17/2013,2010-CCD-0440,
,66752,10/1/2012,,,"5970 Landon Store Rd, Marion MD 21838",Somerset,CAFO,LEONARD HOWARD,,38.046279,-75.74333,,2/25/2009,42800,Chickens-not laying hens-dry,,,Registered,,12/24/2013,2009-CCD-0488,
,23562,1/18/2010,,,"12667 Massey Rd, Massey MD 21650",Kent,CAFO,"LESTER C. JONES & SONS, INC.",,39.320637,-75.808707,2/23/2011,1/18/2010,2600,Dairy Cattle,,,Registered,,8/16/2011,2010-CDC-0397,
,134832,11/14/2013,,,"23156 Royal Oak Rd, Quantico MD 21856",Wicomico,CAFO,LEWRENZA BYRD/ROYAL OAK FARM,,38.354513,-75.812028,7/8/2011,7/8/2011,44400,Chickens-not laying hens-dry,,,Registered,,10/24/2014,2011-CCD-0474,
,67935,4/2/2014,,,"32310 Dublin Rd, Princess Anne MD 21853",Somerset,CAFO,LINH TRAN FARM,,38.162319,-75.635255,,5/14/2013,299800,Chickens-not laying hens-dry,,,Registered,,6/30/2014,2013-CCD-0681,
,66832,8/23/2010,,,"4042 Smithville Rd, Federalsburg MD 21632",Caroline,CAFO,"LLOYD A. GAUGLER, INC.",,38.71874,-75.773065,10/25/2012,3/3/2009,50000,Chickens-not laying hens-dry,,,Registered,,4/25/2011,2009-CCD-0273,
,37289,3/12/2014,,,"11069 Knife Box Rd, Denton MD 21629",Caroline,CAFO,LOHMEYER GREENHOUSES LLC (NEW CONSTRUCTION),,38.91392,-75.742676,,8/29/2013,35400,Chickens-not laying hens-dry,,,Registered,,6/30/2014,2013-CCD-0666,
,66834,11/19/2010,,,"11169 Knife Box Rd, Denton MD 21629",Caroline,CAFO,LOHMEYER'S FARM INC,,38.914183,-75.743906,8/22/2012,2/25/2009,49400,Chickens-not laying hens-dry,,,Registered,,7/22/2011,2009-CCD-0080,
,67114,11/21/2013,,,"32579 Longridge Rd, Parsonsburg MD 21849",Wicomico,CAFO,"LONGRIDGE FARM, LLC",,38.36638,-75.483473,3/2/2009,3/2/2009,50000,Chickens-not laying hens-dry,,,Registered,,9/14/2012,2009-CCD-0235,
,67148,6/10/2011,,,"5825 Cokesbury Rd, Galestown MD 21659",Dorchester,CAFO,LOYAL PURPOSE FARMS,,38.60554,-75.733861,4/6/2012,3/11/2009,43400,Chickens-not laying hens-dry,,,Registered,,8/6/2012,2009-MCD-0335,
,67118,6/17/2014,,,"34802 Mt. Hermon Rd, Pittsville MD 21850",Wicomico,CAFO,M T MARSHALL FARM,,38.164971,-75.718648,2/26/2009,2/26/2009,120000,Chickens-not laying hens-dry,,,Registered,,12/28/2011,2009-CCD-0171,
,67244,,,,"10460 Stewart Neck Rd, Princess Anne MD 21853",Somerset,COC,M. RAWLINGS NELSON JR. INC./BUNKY NELSON FARM,,38.173986, -75.724798,4/7/2014,10/3/2012,,,,,Certification of Conformance (See AFO Webpage),,,2012-AFO-0512,41185
,68588,8/16/2013,,,"10373 Stewart Neck Rd, Princess Anne MD 21853",Somerset,CAFO,M. RAWLINGS NELSON JR. INC./RAWLINGS NELSON FARM,,38.331849,-75.406988,8/16/2013,2/20/2013,53000,Chickens-not laying hens-dry,,,Registered,,2/27/2014,2013-CCD-0517,
,67226,4/25/2014,,,"2700 Klej Grange Rd, Pocomoke City MD 21851",Worcester,CAFO,MAHE FARM/MOHAMMAD NASIR,,38.094807,-75.459562,,4/24/2014,217000,Chickens-not laying hens-dry,,,Registered,,5/2/2014,2009-CCD-0062,
,66790,9/6/2011,,,"5890 Harmony Rd, Preston MD 21655",Caroline,CAFO,MAJID AROOM/CASPIAN AND WYNNE FARMS,,38.769001,-75.882014,12/11/2013,2/26/2009,106800,Chickens-not laying hens-dry,,,Registered,,12/22/2011,2009-CCD-0149,
,66528,9/10/2010,,,"7404 Sudlersville Rd, Sudlersville MD 21668",Queen Anne's,CAFO,"MAR DEL VIEW FARMS, LLC",,39.196379,-75.757555,12/4/2012,2/26/2009,43400,Chickens-not laying hens-dry,,,Registered,,9/16/2011,2009-CCD-0150,
,67185,8/12/2010,,,"7420 McCabes Corner Rd, Snow Hill MD 21863",Worcester,CAFO,MARBURY W. PERDUE III/BORROWED FROM GOD,,38.143274,-75.327625,7/18/2013,2/26/2009,146000,Chickens-not laying hens-dry,,,Registered,,9/6/2013,2009-CCD-0151,
,66522,7/18/2012,,,"326 Charles I Boyle Rd, Queen Anne MD 21657",Queen Anne's,CAFO,MARGARET G. BOYLE/HEMSLEY PARK AND PB & J FARMS,,38.94674,-76.016267,3/2/2009,7/19/2012,134000,Chickens-not laying hens-dry,,,Registered,,12/6/2013,2009-CCD-0205,
,129695,6/10/2010,,,"9405 Rum Ridge Rd, Delmar MD 21875",Wicomico,CAFO,MARGARET WHEELER FARM,,38.449972,-75.511298,12/8/2009,12/8/2009,40000,Chickens-not laying hens-dry,,,Registered,,6/1/2011,2009-CCD-0072,
,131172,5/9/2011,,,"36554 Purnell Crossing Rd, Willards MD 21874",Wicomico,CAFO,"MARGO'S FAMILY FARM, LLC",,38.333582,-75.347412,,6/14/2010,41800,Chickens-not laying hens-dry,,,Registered,,9/16/2013,2010-CCD-0411,
,67215,4/20/2011,,,"5986 Snow Hill Rd, Snow Hill MD 21863",Worcester,CAFO,"MAR-HOLLOW FARMS, INC",,38.205278,-75.435588,6/5/2012,3/5/2009,110000,Chickens-not laying hens-dry,,,Registered,,6/4/2014,2009-CCD-0311,
,66687,7/31/2012,,,"12300 Palmetto Church Rd, Princess Anne MD 21853",Somerset,CAFO,MARIA TRAN,,38.214512,-75.649492,,7/6/2012,170000,Chickens-not laying hens-dry,,,Registered,,9/21/2012,2012-CCD-0322,
,67162,6/29/2010,,,"6026 Cokesbury Rd, Rhodesdale MD 21659",Dorchester,CAFO,MARIO M. ROSALES/RBG 1 FARM,,38.624099,-75.724573,10/24/2011,3/5/2009,65000,Chickens-not laying hens-dry,,,Registered,,8/9/2011,2009-CCD-0312,
,133820,8/16/2011,,,"851 Bridgetown Rd, Henderson MD 21640",Caroline,CAFO,MARK ECK/DAD'S FARM,,39.056315,-75.888758,5/14/2010,5/14/2010,70000,Chickens-not laying hens-dry,,,Registered,,5/11/2012,2010-CCD-0408,
,130943,8/16/2011,,,"450 Ell Morris Rd, Henderson MD 21640",Caroline,CAFO,MARK ECK/ECK FARM,,39.083391,-75.853243,5/14/2010,5/14/2010,108000,Chickens-not laying hens-dry,,,Registered,,5/11/2012,2010-CCD-0409,
,66695,3/22/2011,,,"1924 New Bridge Rd, Pocomoke City MD 21851",Worcester,CAFO,MARK HOLLAND/HOME & SHAY FARMS,,38.01706,-75.565873,9/27/2010,1/11/2010,122000,Chickens-not laying hens-dry,,,Registered,,6/29/2012,2010-CCD-0393,
,66848,3/10/2011,,,"6351 Jones Corner Rd, Denton MD 21629",Caroline,CAFO,MARK MONATH/MARK & BRENDA MONATH,,38.781207,-75.810934,6/26/2012,2/26/2009,167400,Chickens-not laying hens-dry,,,Registered,,6/14/2013,2009-CCD-0152,
,67028,3/10/2009,,,"11089 Kitty's Corner's Rd, Cordova MD 21625",Talbot,CAFO,MARK R SUMP FARM,,38.452293,-75.48731,3/10/2009,3/10/2009,90000,Chickens-not laying hens-dry,,,Registered,,9/24/2010,2009-CCD-0020,
,67944,11/8/2012,,,"32403 East Line Rd, Delmar MD 21875",Wicomico,CAFO,MARK R. SHOCKLEY/PEPPER BOX FARM,,38.855571,-75.985239,11/8/2012,3/4/2009,58000,Chickens-not laying hens-dry,,,Registered,,1/27/2014,2009-CCD-0293,
,67197,12/27/2011,,,"10821 St. Matin Neck Rd, Bishopville MD 21813",Worcester,CAFO,MARK S DREW/ MITCHELL A DREW,,38.92118,-75.89962,4/8/2009,2/25/2009,93000,Chickens-not laying hens-dry,,,Registered,,9/14/2012,2009-CCD-0127,
,66789,4/2/2012,,,"23204 Shore Hwy, Denton MD 21629",Caroline,CAFO,MARK S. CALLAHAN,,38.438716,-75.184345,6/6/2013,3/6/2009,68000,Chickens-not laying hens-dry,,,Registered,,2/27/2014,2009-CCD-0320,
,67188,3/21/2013,,,"10788 Three Bridge Branch Rd, Cordova MD 21625",Talbot,CAFO,MARK SUMP/POPULAR LEVEL FARM,,38.845359,-76.013558,,9/6/2013,56000,Chickens-not laying hens-dry,,,Registered,,10/11/2013,2009-CCD-0078,
,66795,5/6/2014,,,"4288 Laurel Grove Rd, Federalsburg MD 21632",Caroline,CAFO,MARTIN CHEESMAN,,38.724534,-75.811874,,10/3/2012,47000,Chickens-not laying hens-dry,,,Registered,,8/21/2014,2012-CCD-0516,
,66844,3/5/2009,,,"13256 Kibler Rd, Greensboro MD 21639",Caroline,CAFO,"MARTIN E. COLLISON, JR./ MARZEL FARM",,38.972153,-75.770786,3/5/2009,3/5/2009,168000,Chickens-not laying hens-dry,,,Registered,,5/20/2013,2009-CCD-0313,
,132850,11/29/2010,,,"33210 Perryhawkin Rd, Princess Anne MD 21853",Somerset,CAFO,MARTIN VITELLI/KNEW FARM,,38.175526,-75.599794,,12/16/2010,175000,Chickens-not laying hens-dry,,,Registered,,8/17/2012,2010-CCD-0444,
,68730,2/10/2011,,,"8911 Marshall Creek Rd, Newark MD 21841",Worcester,CAFO,MARVIN STEPHENS/STEPHENS AND C & J FARM,,38.243976,-75.26971,,3/2/2009,115000,Chickens-not laying hens-dry,,,Registered,,10/2/2013,2009-CCD-0236,
,130957,3/19/2012,,,"309 Cosden Rd, Barclay MD 21607",Queen Anne's,MAFO,MARY JO MOTIER,,39.154364,-75.877811,,5/12/2010,49000,Chickens-not laying hens-dry,,,Registered,,11/1/2012,2010-MCD-0567,
,23566,8/20/2012,,,"Bullfrog Rd @ Mason Dixon Rd, Emmitsburg MD 21727",Frederick,CAFO,"MASON DIXON FARMS, INC",,39.721464,-77.259911,2/24/2014,8/9/2010,2643,Dairy Cattle,,,Registered,,1/28/2013,2010-CDC-0418,
,67212,10/3/2014,,,"8004 Old Ocean City Rd, Whaleyville MD 21872",Worcester,CAFO,MATT LAYFIELD / DENNIS FARM,,38.391406,-75.297565,10/3/2014,2/26/2009,38300,Chickens-not laying hens-dry,,,Registered,,11/17/2014,2009-CCD-0153,
,32240,6/16/2009,,,"3901-B Hawks Hill Rd, New Windsor MD 21776",Carroll,CAFO,MATTHEW HOFF/COLDSPRINGS FARMS,,39.534433,-77.135751,6/16/2009,8/14/2007,1850,Dairy Cattle,,,Registered,,10/27/2010,2009-CCD-0028,
,131410,7/24/2013,,,"5585 Nagel Road, Federalsburg MD 21632",Caroline,CAFO,MATTHEW PAUL MANSHIP/FOG HORN LEG HORN FARM,,38.760972,-75.854316,,3/22/2013,67200,Chickens-not laying hens-dry,,,Registered,,9/30/2013,2013-CCD-0414,
,66991,2/15/2011,,,"6402 George Riggin Rd, Westover MD 21871",Somerset,CAFO,MAX STUCKEY FARM,,38.057186,-75.678822,,2/25/2009,82000,Chickens-not laying hens-dry,,,Registered,,5/22/2013,2009-CCD-0655,
,103351,9/3/2014,,,"5679 Powellville Rd, Willards MD 21850",Wicomico,CAFO,MICHAEL C. ZIDANIC/ZIDANIC FARM,,38.345997,-75.365365,,4/16/2013,53800,Chickens-not laying hens-dry,,,Registered,,10/31/2014,2013-CCD-0652,
,66933,9/15/2010,,,"26365 Line Rd, Denton MD 21629",Caroline,CAFO,MICHAEL REUWER/REUWER'S ROOST/EMPTY POCKETS,,38.820238,-75.793045,3/16/2009,3/16/2009,86000,Chickens-not laying hens-dry,,,Registered,,3/16/2009,2009-CCD-0347,
,67116,6/23/2014,,,"8355 Ironshire Station Rd, Berlin MD 21811",Worcester,CAFO,MICHELLE LITTLETON/KOBY'S ACRES,,38.309459,-75.282511,4/15/2013,4/15/2013,89000,Chickens-not laying hens-dry,,,Registered,,10/24/2014,2013-CCD-0102,
,67141,4/8/2010,,,"8128 Green Lewis Rd, Willards MD 21874",Wicomico,CAFO,MICHELLE PROTANI-CHESNIK/PURGATORY FARM,,38.412623,-75.333033,2/23/2009,2/23/2009,82000,Chickens-not laying hens-dry,,,Registered,,2/14/2011,2009-CCD-0041,
,67196,2/15/2012,,,"6679 Worchester Hwy, Newark MD 21841",Worcester,CAFO,MIKE & NANCY DONOWAY FARM,,38.236634,-75.316389,3/27/2009,3/2/2009,59400,Chickens-not laying hens-dry,,,Registered,,9/26/2013,2009-CCD-0239,
,67135,7/29/2010,,,"30688 Zion Rd, Salisbury MD 21804",Wicomico,CAFO,MILDRED M. PARKER/WESLEY PARKER FARM,,38.39868,-75.548401,2/25/2009,2/25/2009,50000,Chickens-not laying hens-dry,,,Registered,,9/29/2011,2009-CCD-0128,
,67826,12/9/2010,,,"11207 St. Martins Neck Rd, Bishopville MD 21813",Worcester,CAFO,MILTON LEE WEST,,38.42619,-75.170607,3/10/2009,3/10/2009,73000,Chickens-not laying hens-dry,,,Registered,,12/26/2013,2009-CCD-0327,
,67904,1/25/2011,,,"10955 Saint Martins Neck Rd, Bishopville MD 21813",Worcester,CAFO,MILTON LEE WEST JR./MILTON LEE WEST FARM,,38.423138,-75.157908,9/29/2010,3/9/2009,240000,Chickens-not laying hens-dry,,,Registered,,7/30/2013,2009-CCD-0323,
,66666,4/2/2010,,,"3647 Payne Rd, Pocomoke City MD 21851",Worcester,CAFO,MIN DO/CHANCE AND CRITCHER AND SKYLAR FARM,,38.008097,-75.496588,3/3/2009,3/3/2009,158000,Chickens-not laying hens-dry,,,Registered,,3/21/2011,2009-CCD-0049,
,66770,2/25/2009,,,"1635 Cedar Hall Rd, Pocomoke City MD 21851",Worcester,CAFO,"MINH V. MA/ THE GOOD, THE BAD, THE UGLY",,38.089217,-75.517043,7/8/2013,4/6/2009,250000,Chickens-not laying hens-dry,,,Registered,,9/3/2013,2009-CCD-0361,
,130889,2/25/2009,,,"2310 Worcester Hwy, Pocomoke City MD 21851",Worcester,CAFO,MINH V. MA/GREEN FARM,,38.071074,-75.518925,7/1/2013,4/6/2009,96000,Chickens-not laying hens-dry,,,Registered,,9/3/2013,2009-CCD-0359,
,66636,2/17/2011,,,"3206 Byrd Rd, Pocomoke City MD 21851",Worcester,CAFO,MINH V. MA/MEATBALL FARM,,38.053402,-75.580952,2/25/2009,4/6/2009,42000,Chickens-not laying hens-dry,,,Registered,,3/15/2012,2009-CCD-0360,
,67248,4/14/2008,,,"1905 Five Bridges Rd, Snow Hill MD 21863",Worcester,CAFO,MINH VINH/TEN HOUSE FARM,,38.188779,-75.551911,2/20/2009,2/20/2009,430000,Chickens-not laying hens-dry,,,Registered,,7/28/2010,2009-CCD-0013,
,67094,4/1/2011,,,"35345 E. Line Rd, Willards MD 21874",Wicomico,CAFO,MOHAMMAD ARSHAD/CH. FATEH & J. KASANA FARM,,38.451191,-75.384193,4/22/2009,4/22/2009,145800,Chickens-not laying hens-dry,,,Registered,,6/29/2012,2009-CCD-0368,
,130030,5/10/2010,,,"4629 Nassawango Rd, Snow Hill MD 21863",Worcester,CAFO,MOHAMMAD IQBAL/PINEWOOD RANCH,,38.164931,-75.443966,8/26/2013,7/27/2009,45800,Chickens-not laying hens-dry,,,Registered,,8/12/2013,2009-CCD-0375,
,66965,10/3/2014,,,"26955 Fitzgerald Rd, Princess Anne MD 21853",Somerset,CAFO,MONIE BAY FARMS INCORPORATED,,38.189101,-75.819536,,10/1/2012,73000,Chickens-not laying hens-dry,,,Registered,,11/14/2014,2012-CCD-0489,
,137050,2/27/2012,,,"5625 Mt. Hermon Church Rd, Salisbury MD 21804",Wicomico,CAFO,MOON SUB LEE/SALISBURY FARM,,38.34435,-75.536564,,3/8/2012,52000,Chickens-not laying hens-dry,,,Registered,,6/26/2012,2012-CCD-0608,
,67168,12/9/2010,,,"8040 Dividing Creek Rd, Pocomoke MD 21851",Worcester,CAFO,MUOI TRAN/THAN HUU FARM,,38.101266,-75.559,3/10/2009,3/10/2009,164000,Chickens-not laying hens-dry,,,Registered,,10/30/2013,2009-CCD-0328,
,129987,,,,"5626 Lone Pine Rd, Rhodesdale MD 21659",Dorchester,MAFO,"MURPHY'S CRUSTING & UNILOADER SERVICE, INC./DOUBLE TROUBLE",,38.576696,-75.775831,4/15/2014,12/23/2009,176000,Chickens-not laying hens-dry,,,Registered,,10/30/2014,2009-MCD-0564,
,118853,,,,"5624 Eldorado Sharptown Rd, Rhodesdale MD 21659",Dorchester,MAFO,"MURPHY'S CRUSTING, INC./ROBERT'S FARM",,38.573167,-75.753674,10/11/2013,10/11/2013,172000,Chickens-not laying hens-dry,,,Registered,,6/20/2014,2013-MCD-0673,
,137643,10/12/2010,,,"26315 Porter Mill Rd, Hebron MD 21830",Wicomico,CAFO,MURRAY FARMS INC/PORTER MILL FARM,,38.43107,-75.699082,2/19/2009,2/19/2009,54400,Chickens-not laying hens-dry,,,Registered,,9/26/2011,2009-CCD-0478,
,67817,10/12/2010,,,"4700 Dividing Rd4782 Dividing Rd, Salisbury MD 21801",Wicomico,CAFO,"MURRAY FARMS, INC./DIVIDING ROAD & KELRIN FARMS",,38.32316,-75.664777,2/19/2009,2/19/2009,195900,Chickens-not laying hens-dry,,,Registered,,9/26/2012,2009-CCD-0098,
,133052,1/20/2011,,,"33669 Dublin Rd, Princess Anne MD 21853",Somerset,CAFO,MY N. TRAN/MAXINE RUBIN FARM,,38.15131,-75.583655,,1/13/2011,220000,Chickens-not laying hens-dry,,,Registered,,12/28/2011,2011-CCD-0451,
,66971,4/18/2013,,,"31944 West Post Office Rd, Princess Anne MD 21853",Somerset,CAFO,MYONG JA SO/NEW WORLD & ADEN FARM,,38.217974,-75.64485,,2/23/2009,220000,Chickens-not laying hens-dry,,,Registered,,7/29/2013,2009-CCD-0108,
,67958,8/5/2014,,,"24425 Pinetown Rd, Preston MD 21655",Caroline,CAFO,"NADEEM ASHRAF/ EASTON FARM, LLC",,38.796778,-75.858467,,4/2/2014,80000,Chickens-not laying hens-dry,,,Registered,,10/24/2014,2014-CCD-0001,
,67895,5/17/2013,,,"810 Brick Schoolhouse Rd, Centreville MD 21617",Queen Anne's,CAFO,"NATIVE ENTERPRISES, LLC",,39.096529,-76.025307,,4/25/2013,66000,Chickens-not laying hens-dry,,,Registered,,5/17/2013,2009-CCD-0192,
,66969,12/28/2010,,,"7208 Mennonite Church Rd, Westover MD 21871",Somerset,CAFO,NELLIE OVERHOLT,,38.077538,-75.658677,,11/20/2012,75000,Chickens-not laying hens-dry,,,Registered,,4/17/2013,2009-CCD-0486,
,67936,2/19/2010,,,"8440 Courthouse Hill Rd, Pocomoke City MD 21851",Somerset,CAFO,NEWTON BUI/VINA CAO FARM,,38.110891,-75.562521,2/26/2009,2/26/2009,85000,Chickens-not laying hens-dry,,,Registered,,3/15/2012,2009-CCD-0156,
,68123,1/24/2011,,,"12425 Tingle Lane, Bishopville MD 21813",Worcester,CAFO,"NGUYEN FARMS, INC",,38.423804,-75.157712,,2/26/2009,145000,Chickens-not laying hens-dry,,,Registered,,3/5/2012,2009-CCD-0157,
,66850,6/27/2007,,,"14545 Oakland Rd, Ridgely MD 21660",Caroline,CAFO,OAKLAND VIEW FARMS LLC,,38.997417,-75.870888,6/21/2012,6/27/2007,620,Dairy Cattle,,,Registered,,10/2/2012,2007-CCD-0321,
,67862,10/9/2014,,,"33046 Ed Boston Rd, Princess Anne MD 21853",Somerset,CAFO,OSCAR T. RENTSCHLER/BLACK LAB ACRES,,38.192134, -75.605763,,2/26/2014,142000,Chickens-not laying hens-dry,,,Registered,,10/21/2014,2009-CCD-0106,
,67037,2/28/2011,,,"6811 Cherry Walk Rd, Hebron MD 21830",Wicomico,CAFO,PARVAR INC./ALLAN BANK FARM,,38.386156,-75.789559,3/2/2009,3/2/2009,90000,Chickens-not laying hens-dry,,,Registered,,6/14/2013,2009-CCD-0242,
,67939,3/11/2010,,,"13831 Allen Rd, Princess Anne MD 21853",Somerset,CAFO,PAT LAYFIELD FARM,,38.260853,-75.680343,6/1/2011,2/25/2009,40000,Chickens-not laying hens-dry,,,Registered,,1/31/2012,2009-CCD-0129,
,93333,9/25/2013,,,"115 Patterson Dairy Lane, Chestertown MD 21620",Kent,CAFO,"PATTERSON FARMS, INC/HOME FARM",,39.225293,-75.96645,5/20/2013,6/26/2012,561,Dairy Cattle,,,Registered,,6/30/2014,2012-CDC-0669,
,66864,9/11/2009,,,"26846 Baker Rd, Denton MD 21629",Caroline,CAFO,PAUL & MARY JO TOWERS & BADNEWS,,38.909058,-75.772616,1/4/2013,2/26/2009,103000,Chickens-not laying hens-dry,,,Registered,,5/9/2011,2009-CCD-0021,
,108776,9/18/2013,,,"9601 Chapel Rd, Easton MD 21601",Talbot,CAFO,PAUL AARON HUTCHISON SR./HOME FARM,,38.810605,-76.025724,,8/12/2013,98000,Chickens-not laying hens-dry,,,Registered,,12/26/2013,2013-CCD-0664,
,67089,4/8/2010,,,"8210 New Hope Rd, Willards MD 21874",Wicomico,CAFO,PAUL D. CHESNIK/ELYSIAN FIELDS,,38.408059,-75.328146,2/23/2009,2/23/2009,46600,Chickens-not laying hens-dry,,,Registered,,2/14/2011,2009-CCD-0040,
,132683,10/12/2010,,,"34288 Wango Rd, Parsonsburg MD 21849",Wicomico,CAFO,"PENIAL FARM, LLC",,38.319261,-75.423396,,12/1/2010,58000,Chickens-not laying hens-dry,,,Registered,,1/3/2012,2010-CCD-0438,
,66756,7/14/2009,,,"12308 Palmetto Church Rd, Princess Anne MD 21853",Somerset,CAFO,"PETER AND JOSEPH FARM, INC./MARIA & JOSEPH FARM",,38.218406,-75.649526,3/6/2009,3/6/2009,240000,Chickens-not laying hens-dry,,,Registered,,7/28/2010,2009-CCD-0011,
,67011,7/1/2010,,,"33182 Matthewstown Rd, Easton MD 21601",Talbot,CAFO,PHILLIP ORRELL/ADVANTAGE FARM,,38.825462,-75.919828,3/25/2009,2/26/2009,42200,Chickens-not laying hens-dry,,,Registered,,3/15/2012,2009-CCD-0158,
,66882,1/3/2012,,,"27700 Possum Hill Rd, Federalsburg MD 21632",Caroline,CAFO,"POSSUM HILL FARMS, INC.",,38.777749,-75.744034,4/16/2013,2/26/2009,165000,Chickens-not laying hens-dry,,,Registered,,6/14/2013,2009-CCD-0159,
,67142,8/9/2010,,,"35158 Mt Hermon Rd, Pittsville MD 21850",Wicomico,CAFO,PRESTON R. SMITH/R & D FARMS,,38.328975,-75.395117,2/23/2009,2/23/2009,47300,Chickens-not laying hens-dry,,,Registered,,9/16/2011,2009-CCD-0109,
,66668,2/4/2013,,,"8919 Morris Rd, Whaleyville MD 21872",Worcester,CAFO,R & S FARM OPERATIONS LLC/ROASTER FARM,,38.446609,-75.264776,,2/4/2013,108000,Chickens-not laying hens-dry,,,Registered,,6/25/2014,2013-CCD-0648,
,67216,2/4/2013,,,"13124 Blueberry Rd, Whaleyville MD 21872",Worcester,CAFO,R & S FARM OPERATIONS LLC/SWAMP FARM,,38.442606,-75.287507,3/4/2009,2/4/2013,100000,Chickens-not laying hens-dry,,,Registered,,7/28/2014,2013-CCD-0283,
,133394,7/13/2012,,,"3931 Laurel Grove Rd, Federalsburg MD 21632",Caroline,CAFO,R. MICHAEL RICHARDSON/CHERRY LANE FARM,,38.717775,-75.804332,2/25/2011,2/25/2011,81000,Chickens-not laying hens-dry,,,Registered,,11/5/2012,2011-CCD-0461,
,67824,2/24/2014,,,"31503 Rehobeth Rd, Westover MD 21871",Somerset,CAFO,"RAMSAY FAMILY FARM, INC.",,38.053131,-75.66158,2/24/2014,2/27/2009,127500,Chickens-not laying hens-dry,,,Registered,,4/11/2014,2009-CCD-0509,
,68005,10/8/2010,,,"26229 Williamsburg Rd, Federalsburg MD 21632",Caroline,CAFO,RANDY & ANN COLLINS FARM,,38.683164,-75.79522,4/16/2012,3/3/2009,63000,Chickens-not laying hens-dry,,,Registered,,7/22/2011,2009-CCD-0077,
,67229,3/28/2009,,,"8052 Ironshire Station Rd, Berlin MD 21811",Worcester,CAFO,RANDY BUI/RANDY FARM,,38.315424,-75.296131,2/26/2009,2/26/2009,210800,Chickens-not laying hens-dry,,,Registered,,6/6/2014,2009-CCD-0160,
,67154,10/8/2010,,,"6418 Palmers Mills Rd, Hurlock MD 21632",Dorchester,CAFO,RANDY COLLINS/MOTHER HEN FARM,,38.635568,-75.82234,3/2/2009,3/2/2009,51000,Chickens-not laying hens-dry,,,Registered,,7/24/2014,2009-CCD-0243,
,132356,10/15/2010,,,"10012 Arden Station Road, Princess Anne MD 21853",Somerset,CAFO,RANTZ WILLIAM PURCELL/RWP FARM,,38.15806,-75.665112,,10/12/2010,90000,Chickens-not laying hens-dry,,,Registered,,12/28/2011,2010-CCD-0429,
,67905,10/22/2012,,,"6787 Powellville Rd, Willards MD 21874",Wicomico,CAFO,RAY A. LEWIS/LEWIS FARM,,38.373673,-75.352174,12/8/2010,3/2/2009,63000,Chickens-not laying hens-dry,,,Registered,,1/30/2013,2009-CCD-0244,
,67145,10/22/2012,,,"32516 Downing Rd, Delmar MD 21875",Wicomico,CAFO,RAY A. LEWIS/RAY'S CHICKS,,38.432387,-75.484113,12/8/2010,3/2/2009,43200,Chickens-not laying hens-dry,,,Registered,,1/30/2013,2009-CCD-0245,
,66961,11/8/2013,,,"5519 Town Point Rd, Cambridge MD 21613",Dorchester,CAFO,RAYMOND AARON JR.,,38.568569,-76.141839,,2/7/2013,57000,Chickens-not laying hens-dry,,,Registered,,2/7/2014,2013-CCD-0534,
,131204,,,,"33960 Sassafras Caldwell Rd, Galena MD 21635",Kent,MAFO,"RICH LEVELS GRAIN, INC.",,39.37485,-75.782499,,9/4/2014,,,,,Registered,,11/6/2014,2014-MCD-0568,
,68014,9/20/2011,,,"8916 Cedar Lane Rd, Berlin MD 21811",Worcester,CAFO,RICHARD & KAREN WIDGEON,,38.318331,-75.262964,,4/6/2009,84000,Chickens-not laying hens-dry,,,Registered,,1/20/2012,2009-CCD-0363,
,67254,3/5/2009,,,"1128 Snow Hill Rd, Stockton MD 21864",Worcester,CAFO,RICHARD E. BLEVINS/TWIN OAK FARM,,38.040902,-75.408762,3/5/2009,3/5/2009,122400,Chickens-not laying hens-dry,,,Registered,,5/9/2011,2009-CCD-0024,
,132829,5/2/2011,,,"12805 Kibler Rd, Greensboro MD 21639",Caroline,CAFO,RICHARD H. JANVIER,,38.95651,-75.765258,,12/14/2010,75000,Chickens-not laying hens-dry,,,Registered,,10/16/2013,2010-CCD-0443,
,67036,5/10/2010,,,"5531 Thompsontown Rd, East New Market MD 21631",Dorchester,MAFO,RICHARD HALL/HALLADISE & HIDDEN HARVEST FARMS,,38.562918,-75.9091,3/2/2009,3/2/2009,,,,,Registered,,11/5/2012,2009-MCD-0518,
,139694,9/25/2014,,,"346 Hall Rd, Pocomoke City MD 21851",Worcester,CAFO,RICKY HOLLAND JEN RIC FARM,,38.009829, -75.616052,,1/28/2013,50000,Chickens-not laying hens-dry,,,Registered,,11/24/2014,2013-CCD-0687,
,67204,9/4/2014,,,"2315 Tulls Corner Road, Pocomoke City MD 21851",Worcester,CAFO,RICKY SCOTT HOLLAND/RAILROAD FARMS,,38.019234, -75.550721,,8/8/2013,108000,Chickens-not laying hens-dry,,,Registered,,10/30/2014,2013-CCD-0367,
,130079,2/24/2011,,,"1302 Colona Road, Pocomoke City MD 21851",Worcester,CAFO,RICKY T. HOLLAND/COLONA FARM,,38.012379,-75.600983,9/27/2010,1/11/2010,110000,Chickens-not laying hens-dry,,,Registered,,3/19/2014,2010-CCD-0394,
,102282,9/24/2013,,,"27164 Iron Gate Rd, Federalsburg MD 21632",Caroline,CAFO,ROBERT EDWIN LOVE/BOBBY LOVE FARM,,38.798385,-75.762051,,3/11/2013,54000,Chickens-not laying hens-dry,,,Registered,,12/6/2013,2013-CCD-0672,
,67062,12/28/2010,,,"26731 Siloam Rd, Salisbury MD 21601",Wicomico,CAFO,ROBERT GRAVES/BOBBY GRAVES FARM,,38.320914,-75.687395,2/27/2009,2/27/2009,105000,Chickens-not laying hens-dry,,,Registered,,5/29/2012,2009-CCD-0186,
,67127,10/24/2014,,,"6902 Whiteley Rd, Federalsburg MD 21632",Caroline,CAFO,ROBERT HOWARD,,38.680473,-75.814998,4/2/2014,6/12/2014,69500,Chickens-not laying hens-dry,,,Registered,,11/28/2014,2014-CCD-0535,
,67079,4/14/2011,,,"1266 Laurel Rd, Mardela Springs MD 21837",Wicomico,CAFO,ROBERT JAMES HASTINGS/CRUSER MILL FARM,,38.525943,-75.712571,2/27/2009,2/27/2009,90000,Chickens-not laying hens-dry,,,Registered,,12/27/2012,2009-CCD-0187,
,133509,7/6/2011,,,"30091 Rabbit Hill Rd, Easton MD 21601",Talbot,CAFO,ROBERT P. SAATHOFF JR. FARM,,38.840363,-76.03151,2/14/2011,2/14/2011,54000,Chickens-not laying hens-dry,,,Registered,,10/30/2013,2011-CCD-0458,
,66534,3/2/2009,,,"3209 Peters Corner Rd, Queen Anne MD 21649",Queen Anne's,CAFO,ROBERT W. MCCORMICK/SANDY BRAE FARM,,39.150613,-75.775471,4/16/2012,3/2/2009,90000,Chickens-not laying hens-dry,,,Registered,,5/31/2011,2009-CCD-0060,
,67176,1/7/2011,,,"5132 Clark Canning Hs. Rd, Federalsburg MD 21632",Dorchester,CAFO,ROCKIN' W. RANCH,,38.678338,-75.799288,,9/12/2012,57000,Chickens-not laying hens-dry,,,Registered,,4/17/2013,2009-CCD-0507,
,67169,1/6/2014,,,"7128 Hubbard Rd, Federalsburg MD 21632",Caroline,MAFO,ROLAND TODD/ROLAND'S ROASTER'S,,38.689986,-75.834721,2/19/2009,2/19/2009,178000,Chickens-not laying hens-dry,,,Registered,,7/25/2014,2009-MCD-0481,
,68025,7/13/2011,,,"5290 Harmony Rd5146 Harmony Rd, Preston MD 21655",Caroline,CAFO,RONALD AND JOYCE COHEE FARMS,,38.753409,-75.877899,3/8/2010,2/26/2009,107000,Chickens-not laying hens-dry,,,Registered,,2/21/2012,2009-CCD-0161,
,68102,7/3/2012,,,"2960 Jesterville Rd, Nanticoke MD 21840",Wicomico,CAFO,RONALD T. FISHER/THURMAN FARMS,,38.280152,-75.895036,12/12/2013,2/25/2009,44000,Chickens-not laying hens-dry,,,Registered,,2/27/2014,2009-CCD-0130,
,66627,6/28/2010,,,"11831 Big Stone Rd, Galena MD 21635",Kent,CAFO,RONALD W. VAN CULIN/WHITE STONE FARM,,39.299279,-75.767588,3/2/2009,3/2/2009,54000,Chickens-not laying hens-dry,,,Registered,,5/31/2011,2009-CCD-0066,
,66744,9/6/2013,,,"25986 Beauchamp Branch Rd, Denton MD 21629",Caroline,CAFO,"RONDEB FAMILY FARM, LLC",,38.806029,-75.803233,,12/4/2012,48000,Chickens-not laying hens-dry,,,Registered,,12/24/2013,2012-CCD-0650,
,129177,8/25/2010,,,"30581 Turkey Branch Rd, Westover MD 21871",Somerset,CAFO,RONNIE SCHROCK/BREEZEWOOD POULTRY FARM,,38.098455,-75.69344,10/26/2009,10/26/2009,56000,Chickens-not laying hens-dry,,,Registered,,9/16/2011,2009-CCD-0382,
,68149,8/17/2011,,,"8001 Old Ocean City Rd, Whaleyville MD 21872",Worcester,CAFO,RONNIE THOMPSON/YOFLY FARM,,38.392096,-75.297068,3/19/2009,3/12/2009,55000,Chickens-not laying hens-dry,,,Registered,,1/20/2012,2009-CCD-0339,
,66974,6/17/2014,,,"34330 Wango Rd, Pittsville MD 21850",Wicomico,CAFO,RYAN MARSHALL/ABM FARM,,38.323854,-75.391129,,7/28/2014,138000,Chickens-not laying hens-dry,,,Registered,,10/24/2014,2014-CCD-0698,
,130840,2/2/2012,,,"6718 Dion Rd, Federalsburg MD 21632",Caroline,CAFO,"S & W WHITETAIL FARM, LLC",,38.787856,-75.768758,4/2/2010,4/2/2010,80000,Chickens-not laying hens-dry,,,Registered,,4/10/2012,2010-CCD-0403,
,66987,3/12/2013,,,"27301Fitzgerald Rd, Princess Anne MD 21853",Somerset,CAFO,S.H.L. ANDERSON INC.,,38.197118,-75.80535,,3/3/2009,87000,Chickens-not laying hens-dry,,,Registered,,6/14/2013,2009-CCD-0537,
,67038,9/21/2010,,,"6635 Friendship Rd, Pittsville MD 21850",Wicomico,CAFO,SABAH EL-BAF/ALIBABA FARM,,38.373849,-75.386027,2/23/2009,2/23/2009,155000,Chickens-not laying hens-dry,,,Registered,,9/12/2011,2009-CCD-0111,
,66935,6/28/2010,,,"17254 Cool Spring Rd, Marydel MD 21646",Caroline,CAFO,SAMUEL F COOPER JR,,39.08025,-75.772401,2/25/2009,2/25/2009,111000,Chickens-not laying hens-dry,,,Registered,,5/9/2011,2009-CCD-0131,
,68043,5/31/2011,,,"12160 East Ridge Rd, Princess Anne MD 21853",Somerset,CAFO,SAMUEL W. HALL/EAST RIDGE FARM,,38.21512,-75.714704,3/16/2009,2/19/2009,72000,Chickens-not laying hens-dry,,,Registered,,8/28/2013,2009-CCD-0472,
,66985,4/5/2011,,,"32180 West Post Office Rd, Princess Anne MD 21853",Somerset,CAFO,SANDY RIDGE FARM INC.,,38.220967,-75.632951,3/4/2009,3/4/2009,92400,Chickens-not laying hens-dry,,,Registered,,8/17/2012,2009-CCD-0298,
,68001,2/13/2011,,,"1607 Unionville Rd, Pocomoke City MD 21851",Worcester,CAFO,SARAH T. CHISHOLM/PULLET DOWNS INC.,,38.066572,-75.592483,2/14/2013,4/6/2009,53000,Chickens-not laying hens-dry,,,Registered,,7/25/2014,2009-CCD-0362,
,68049,7/21/2014,,,"35618 Rayne Rd, Willards MD 21874",Wicomico,CAFO,SARFRAZ AHMAD/FAKHRA-SARFRAZ FARM,,38.412048,-75.376769,,6/13/2014,222600,Chickens-not laying hens-dry,,,Registered,,11/6/2014,2009-CCD-0246A,
,23563,12/23/2013,,,"Kibler Rd & Rte 314, Greensboro MD 21639",Caroline,CAFO,"SCHIFF FARMS, INC.",,38.960984,-75.769451,,2/1/2010,2800,Cattle - includes heifers,,,Registered,,7/31/2014,2010-CCA-0399,
,66874,3/29/2012,,,"3341 Choptank Rd, Preston MD 21655",Caroline,CAFO,"SCHMICK FARM, INC.",,38.699692,-75.926462,6/6/2013,3/3/2009,71600,Chickens-not laying hens-dry,,,Registered,,3/21/2011,2009-CCD-0050,
,68051,3/11/2014,,,"8475 Follow Ditch Rd, Westover MD 21871",Somerset,CAFO,SCOT BEAUCHAMP/HOME AND DAD'S FARMS,,38.112987,-75.612044,,3/2/2009,152000,Chickens-not laying hens-dry,,,Registered,,6/10/2014,2009-CCD-0520,
,67013,12/18/2009,,,"11034 Kittys Corner Rd, Cordova MD 21625",Talbot,CAFO,SCOTT COLLIER/COLLIER FARMS,,38.849758,-75.990518,2/19/2009,2/19/2009,122700,Chickens-not laying hens-dry,,,Registered,,7/22/2011,2009-CCD-0079,
,132412,4/6/2012,,,"22535 Tanyard Road, Preston MD 21655",Caroline,CAFO,SCOTT E. FRASE/HAILEY BAILEY FARM,,38.74892,-75.926093,,10/26/2010,60000,Chickens-not laying hens-dry,,,Registered,,8/5/2011,2010-CCD-0430,
,67194,10/17/2012,,,"3347 Betheden Church Rd, Pocomoke City MD 21851",Worcester,CAFO,SHABBIR CHOUDERY/CHOUDERY/PAK-AM FARMS,,38.112122,-75.461889,3/3/2009,3/3/2009,296400,Chickens-not laying hens-dry,,,Registered,,6/14/2013,2009-CCD-0277,
,96101,1/3/2014,,,"27340 Crisfield Marion Rd, Crisfield MD 21817",Somerset,CAFO,SHARON MACNEAL/CULLEN FARM,,38.02996,-75.814076,,9/4/2012,70000,Chickens-not laying hens-dry,,,Registered,,6/4/2014,2012-CCD-0679,
,66875,8/20/2010,,,"26786 Temple Rd, Marydel MD 21649",Caroline,CAFO,SHARON WELSH FARM,,39.11738,-75.767726,1/29/2013,3/4/2009,80000,Chickens-not laying hens-dry,,,Registered,,12/22/2012,2009-CCD-0299,
,143134,7/31/2012,,,"12338 Campbelltown Rd, Bishopville MD 21813",Worcester,CAFO,SMITH FARMS LIMITED PARTNERSHIP/B & D FARM,,38.424668,-75.235952,7/11/2014,9/28/2012,84000,Chickens-not laying hens-dry,,,Registered,,11/5/2014,2012-CCD-0691,
,66876,9/10/2010,,,"6158 Todd Rd, Federalsburg MD 21632",Caroline,CAFO,SMITHVILLE VIEW FARM LLC,,38.776021,-75.750236,2/24/2012,3/2/2009,137000,Chickens-not laying hens-dry,,,Registered,,6/3/2011,2009-CCD-0063,
,67165,6/27/2013,,,"3523 Chateau Drive, East New Market MD 21631",Dorchester,CAFO,SOON HEE KIM/UNION MILL FARM,,38.551365,-75.977356,,6/27/2013,60000,Chickens-not laying hens-dry,,,Registered,,4/21/2014,2013-CCD-0559,
,132493,6/20/2011,,,"6329 Statum Road, Preston MD 21655",Caroline,CAFO,STEPHEN EARL FOSTER/WHITE TAIL GROVE,,38.782257,-75.854941,10/28/2010,10/28/2010,60000,Chickens-not laying hens-dry,,,Registered,,9/16/2013,2010-CCD-0432,
,129184,1/13/2014,,,"28385 Old Eden Rd, Eden MD 21822",Wicomico,CAFO,STEVE STUART/DRAGON'S LAIR FARM,,38.29229, -75.626424,10/21/2013,10/21/2013,120000,Chickens-not laying hens-dry,,,Registered,,3/28/2014,2013-CCD-0381,
,66515,10/22/2009,,,"1905 Sudlersville Rd, Sudlersville MD 21668",Queen Anne's,CAFO,STEVEN R. HOSTETLER/ALMOSTA FARM,,39.167657,-75.93394,2/28/2012,2/26/2009,42000,Chickens-not laying hens-dry,,,Registered,,5/20/2013,2009-CCD-0163,
,68085,1/18/2011,,,"4518 Gadow Rd, Preston MD 21655",Caroline,CAFO,STEWART COHEE/BEN'S TURN,,38.732202,-75.875176,3/2/2009,3/2/2009,40000,Chickens-not laying hens-dry,,,Registered,,10/30/2013,2009-CCD-0250,
,67906,3/23/2011,,,"10614 Garland Rd, Denton MD 21624",Caroline,CAFO,STUART L. MARGREY/LYN LARK FARM,,38.89857,-75.799331,,9/7/2010,80000,Chickens-not laying hens-dry,,,Registered,,8/28/2013,2010-CCD-0423,
,67246,9/24/2010,,,"5450 Onley Rd, Girdletree MD 21829",Worcester,CAFO,SUCCESSFUL FARM INC,,38.094016,-75.412537,2/20/2009,2/20/2009,144800,Chickens-not laying hens-dry,,,Registered,,10/14/2011,2009-CCD-0100,
,68100,3/10/2011,,,"31151 Carioca Rd, Delmar MD 21875",Wicomico,CAFO,SUN SANG KIM/SUN'S CHICKEN FARM,,38.42521,-75.53189,2/26/2009,2/26/2009,50000,Chickens-not laying hens-dry,,,Registered,,9/3/2013,2009-CCD-0165,
,67050,9/15/2010,,,"4013 ST Luke Rd, Salisbury MD 21804",Wicomico,CAFO,SUNG PARK/BETHEL FARM,,38.303561,-75.602073,2/24/2009,2/24/2009,73600,Chickens-not laying hens-dry,,,Registered,,9/3/2013,2009-CCD-0117,
,67156,10/1/2012,,,"695 Bachmans Valley Rd, Westminster MD 21157",Carroll,CAFO,SUNNYSIDE POULTRY FARMS,,39.644592,-76.970588,,3/2/2009,398980,Laying hens - dry manure,,,Registered,,7/15/2013,2009-CCD-0521,
,67054,6/20/2014,,,"9502 Spring Hill Lane, Salisbury MD 21801",Wicomico,CAFO,SUSAN ARNOLD/BLACKWATER FARMS,,38.454616,-75.665641,2/26/2009,2/26/2009,62500,Chickens-not laying hens-dry,,,Registered,,9/18/2014,2009-CCD-0166,
,67173,5/4/2011,,,"6012 Newhart Mill Rd, Galestown MD 21659",Dorchester,MAFO,T. HARRY WHEEDLETON,,38.602989,-75.71436,4/10/2012,3/3/2009,88000,Chickens-not laying hens-dry,,,Registered,,6/4/2014,2009-MCD-0538,
,66966,7/26/2012,,,"4723 Stockton Rd, Pocomoke City MD 21851",Worcester,CAFO,TAE H. KIM/M & J FARM,,38.069865,-75.454796,2/26/2009,2/26/2009,65000,Chickens-not laying hens-dry,,,Registered,,12/27/2012,2009-CCD-0167,
,67149,4/19/2011,,,"8830 Calloway Rd, Willards MD 21874",Wicomico,CAFO,TAM PHAM/PHUONG TAM FARM,,38.432576,-75.394578,9/27/2010,5/2/2011,96000,Chickens-not laying hens-dry,,,Registered,,9/6/2013,2011-CCD-0466,
,66594,7/6/2010,,,"160 Cherry Blossom Farm Lane, Church Hill MD 21623",Queen Anne's,CAFO,"TAYLOR,BURGESS & BURGESS LLC",,39.095706,-75.914125,2/26/2009,2/26/2009,250000,Chickens-not laying hens-dry,,,Registered,,9/19/2011,2009-CCD-0168,
,21912,3/7/2011,,,"10311 Glade Rd, Walkersville MD 21793",Frederick,CAFO,"TEABOW, INCORPORATED",,39.514325,-77.343745,6/17/2014,5/13/2010,1672,Dairy Cattle,,,Registered,,11/28/2014,2010-CDC-0407,
,66994,7/13/2012,,,"29418 Hudson Corner, Marion MD 21838",Somerset,CAFO,THANH TRAN/CHOPTANK & LITTLE ANNEMESSEX,,38.040795,-75.735187,,7/13/2012,336000,Chickens-not laying hens-dry,,,Registered,,6/20/2014,2012-CCD-0615,
,67223,1/7/2011,,,"2501 Lambertson Rd, Pocomoke City MD 21851",Worcester,CAFO,THOAN PHAM/PETER & TERRY FARM,,38.082157,-75.497793,2/24/2009,2/24/2009,219700,Chickens-not laying hens-dry,,,Registered,,9/17/2013,2009-CCD-0118,
,66970,3/4/2011,,,"4356 Steele Neck Rd, Vienna MD 21869",Dorchester,CAFO,THOMAS DIGREGORIO/CAMLAU FARMS,,38.471266,-75.886803,2/26/2014,3/10/2009,53300,Chickens-not laying hens-dry,,,Registered,,6/14/2013,2009-CCD-0330,
,68124,1/28/2011,,,"7644 Downs Rd, Newark MD 21841",Worcester,CAFO,THOMAS HOWARD TRUITT/TEL FARMTHOMAS HOWARD TRUITT/T & L FARM,,38.268883,-75.252,6/30/2009,6/30/2009,40000,Chickens-not laying hens-dry,,,Registered,,8/12/2013,2009-CCD-0374,
,66538,9/28/2009,,,"115 Wright Neck Rd, Queen Anne MD 21617",Queen Anne's,CAFO,"THOMAS T. AUSTIN, JR./SERENITY FARM",,39.028604,-76.121621,3/7/2012,3/3/2009,105400,Chickens-not laying hens-dry,,,Registered,,7/12/2010,2009-CCD-0004,
,67000,11/14/2013,,,"27160 Cash Corner Rd, Crisfield MD 21817",Somerset,CAFO,THOMAS W. HORNSBY & JACQUI L. RANCHOR-HORNSBY/ DELILAH RUN,,37.991344,-75.813986,11/14/2013,4/25/2012,162500,Chickens-not laying hens-dry,,,Registered,,2/27/2014,2012-CCD-0620,
,67130,9/15/2010,,,"32158 Downing Rd, Delmar MD 21875",Wicomico,CAFO,TIM NGUYEN FARM,,38.427393,-75.497109,3/23/2009,2/26/2009,87200,Chickens-not laying hens-dry,,,Registered,,3/15/2012,2009-CCD-0170,
,66796,9/20/2010,,,"21361 Tanyard Rd, Preston MD 21673",Caroline,CAFO,TIMOTHY DANIELS/CHICKEN LITTLE FARM,,38.756991,-75.963658,2/26/2009,2/26/2009,105000,Chickens-not laying hens-dry,,,Registered,,6/6/2011,2009-CCD-0073,
,67124,12/3/2010,,,"9577 Old Railroad Rd, Mardela Springs MD 21837",Wicomico,CAFO,TIMOTHY M. WRIGHT/MUDDYBOTTOM FARM,,38.455829,-75.696264,,3/5/2009,67200,Chickens-not laying hens-dry,,,Registered,,8/17/2012,2009-CCD-0315,
,95219,8/13/2012,,,"312 Thisitville Circle, Centreville MD 21617",Queen Anne's,CAFO,"TINA L. JOHNSON/LITTLE CHICKS, LLC",,38.976077,-76.033983,,8/13/2012,108000,Chickens-not laying hens-dry,,,Registered,,2/7/2013,2012-CCD-0621,
,139965,4/25/2013,,,"31700 Mitchell Rd, Princess Anne MD 21853",Somerset,CAFO,TINY ANGELS,,38.150376,-75.653505,,4/2/2014,136000,Chickens-not laying hens-dry,,,Registered,,6/10/2014,2013-CCD-0658,
,131936,6/26/2013,,,"8001 Athol Rd, Hebron MD 21830",Wicomico,CAFO,TOMMY ANDREW NEAL/BURNS FARM,,38.412951,-75.758222,8/23/2010,8/23/2010,45400,Chickens-not laying hens-dry,,,Registered,,9/6/2013,2010-CCD-0419,
,131935,4/29/2013,,,"7507 Quantico Rd, Hebron MD 21830",Wicomico,CAFO,TOMMY ANDREW NEAL/GINNY LEE FARM,,38.399444,-75.711215,8/23/2010,8/23/2010,55800,Chickens-not laying hens-dry,,,Registered,,7/15/2013,2010-CCD-0420,
