afo_application_number,ai_number,cnmp_received_date,deadline_to_request_hearing,deadline_to_submit_written_comments,farm_address,farm_county,farm_designation,farm_name,latest_cnmp_status_form_received_date,latitude,longitude,nmp_received_date,noi_received_date,number_of_animals,primary_animal_type,public_hearing_date,public_hearing_location,status,conservation_plan_received_date,afo_registered_date,afo_registration_number,coc_received_date
,132763,41221,,,"3005 Traceys Mill Rd, Manchester MD 21102",Carroll,CAFO,/NORMAN E. SELLERS/PANORA ACRES INC.,,39.694482,-76.891703,41464,40515,520,Dairy Cattle,,,Registered,,41547,2010-CDC-0441,
,67123,41744,,,"11071 Sharptown Rd, Mardela Springs MD 21837",Wicomico,CAFO,"11071 SHARPTOWN ROAD, LLC",,38.497188,-75.745961,,41682,86700,Chickens-not laying hens-dry,,,Registered,,41820,2014-CCD-0190,
,66698,40247,,,"4541 Shelltown Rd, Marion MD 21838",Somerset,CAFO,"A&P FARMS, INC.",,38.002648,-75.641164,39870,39870,153200,Chickens-not laying hens-dry,,,Registered,,40771,2009-CCD-0133,
,66753,40185,,,"10819 Jerusalem Rd, Princess Anne MD 21853",Somerset,CAFO,AARON LESSIG/LESSIG & MADISON BROOKE FARM,,38.178722,-75.803554,39877,39877,206000,Chickens-not laying hens-dry,,,Registered,,40564,2009-CCD-0031,
,66644,40620,,,"28586 Mt Vernon Rd, Princess Anne MD 21853",Somerset,CAFO,ABDUL WAHID/GHUMAN FARM,,38.233636,-75.759739,39870,39870,109400,Chickens-not laying hens-dry,,,Registered,,41058,2009-CCD-0134,
,67172,41792,,,"2836 Sheephouse Rd2735 Sheephouse Rd, Pocomoke City MD 21851",Worcester,CAFO,ABERDEEN FARM LLC,,38.048636,-75.53426,,41792,428000,Chickens-not laying hens-dry,,,Registered,,41844,2009-CCD-0010A,
,67785,41280,,,"10308 Caleb Rd, Berlin MD 21811",Worcester,CAFO,AG RENEWAL ENTERPRISES INC.,,38.357793,-75.236979,,39875,110000,Chickens-not laying hens-dry,,,Registered,,41967,2009-CCD-0260,
,87101,40997,,,"2409 Ward Rd, Pocomoke City MD 21851",Worcester,CAFO,AHSAN CHOUDARY / SAMS FARM,,38.084162,-75.441074,,40997,179200,Chickens-not laying hens-dry,,,Registered,,41127,2012-CCD-0610,
,29910,41887,,,"4041 Johnson Neck Rd, Pocomoke City MD 21851",Worcester,CAFO,AKSMAH LLC / BILLO'S FARM,,38.09519, -75.473020,,41752,216000,Chickens-not laying hens-dry,,,Registered,,41942,2014-CCD-0682,
,67203,41074,,,"9101 Logtown Rd, Berlin MD 21811",Worcester,CAFO,ALAN & KRISTIN HUDSON,,38.365688,-75.253851,39877,39877,80000,Chickens-not laying hens-dry,,,Registered,,41866,2009-CCD-0305,
,137029,41002,,,"6454 Wheatley Rd, Federalsburg MD 21632",Dorchester,CAFO,"ALLEN HARIM FARMS, LLC/LUCY FARM",,38.641126,-75.742338,,40969,115800,Chickens-not laying hens-dry,,,Registered,,41123,2012-CCD-0603,
,137032,41002,,,"7024 Whiteley Rd, Federalsburg MD 21632",Dorchester,CAFO,"ALLEN HARIM FARMS, LLC/TODD FARM",,38.684101,-75.805175,,40969,82000,Chickens-not laying hens-dry,,,Registered,,41123,2012-CCD-0602,
,137027,41002,,,"5635 Davis Mill Pond Rd, Federalsburg MD 21632",Dorchester,MAFO,"ALLEN HARIM FOODS, LLC/DAVIS MILL FARM",,38.658135,-75.752833,,40969,50000,Chickens-not laying hens-dry,,,Registered,,41138,2012-MCD-0607,
,137030,41002,,,"6940 Reliance Rd, Federalsburg MD 21632",Dorchester,MAFO,"ALLEN HARIM FOODS, LLC/DOBSON FARM",,38.677038,-75.763407,,40969,75400,Chickens-not laying hens-dry,,,Registered,,41138,2012-MCD-0605,
,67227,40798,,,"3422 Sheephouse Rd, Pocomoke City MD 21851",Worcester,CAFO,ALVIN ALLEN/POOR BOY FARM,,38.044935,-75.508173,39874,39874,51000,Chickens-not laying hens-dry,,,Registered,,40907,2009-CCD-0191,
,132494,40599,,,"6585 Sixty Foot Rd, Pittsville MD 21850",Wicomico,CAFO,ANDREW JAMES HAGGERTY/SANDY HILL FARM,,38.371195,-75.426133,40479,40479,70000,Chickens-not laying hens-dry,,,Registered,,40905,2010-CCD-0431,
,66531,40939,,,"210 Shawn Rd, Centreville MD 21617",Queen Anne's,CAFO,ANDREW L. MCLEAN/RELIEF FARM,,39.037865,-75.928166,39870,39870,180000,Chickens-not laying hens-dry,,,Registered,,41058,2009-CCD-0135,
,67161,40904,,,"33361 Melson Rd, Delmar MD 21875",Wicomico,CAFO,ANDY TRAN/TRAN FARM & NINE GOLDEN CHICKS,,38.437123,-75.452241,39874,39874,240000,Chickens-not laying hens-dry,,,Registered,,40983,2009-CCD-0193,
,68131,40976,,,"23235 Capitola Rd, Tyaskin MD 21865",Wicomico,CAFO,"ANTHONY BALCERZAK, SR./WHITE HAVEN FARM",,38.288409,-75.810374,40448,39874,48000,Chickens-not laying hens-dry,,,Registered,,41214,2009-CCD-0195,
,138517,40976,,,"21322 Bivalve Lodge Rd, Bivalve MD 21814",Wicomico,CAFO,ANTHONY E. BALCERZAK JR./BIG BIVALVE,,38.302756,-75.876573,,41156,35000,Chickens-not laying hens-dry,,,Registered,,41212,2012-CCD-0625,
,66845,40463,,,"3640 Pepper Rd, Federalsburg MD 21632",Caroline,CAFO,ANTHONY MATURO FARM,,38.707253,-75.819563,40354,39874,51500,Chickens-not laying hens-dry,,,Registered,,40723,2009-CCD-0075,
,68716,40238,,,"31635 Mitchell Rd, Princess Anne MD 21853",Somerset,CAFO,ANTHONY RIZZI/RIZZI'S ROOST,,38.149389,-75.652754,39875,39875,81600,Chickens-not laying hens-dry,,,Registered,,41134,2009-CCD-0276,
,67955,40575,,,"26666 Cottman Rd, Eden MD 21822",Wicomico,CAFO,ARTHUR WIDDOWSON/PET PALACE,,38.282168,-75.693308,40176,39863,62800,Chickens-not laying hens-dry,,,Registered,,40939,2009-CCD-0089,
,67021,40359,,,"10435 Chapel Rd, Easton MD 21601",Talbot,CAFO,AUBREY STORM/FIRST FROST FARM,,38.833697,-76.003735,39863,39863,61000,Chickens-not laying hens-dry,,,Registered,,41040,2009-CCD-0090,
,68033,41624,,,"2633 Bunting Rd, Pocomoke City MD 21851",Worcester,CAFO,AYDELOTTE POULTRY LLC,,38.00913,-75.540313,,41331,165000,Chickens-not laying hens-dry,,,Registered,,41750,2013-CCD-0668,
,67852,40127,,,"6025 Eldorado Federalsburg Rd, Rhodesdale MD 21659",Dorchester,CAFO,"BARNES FAMILY FARMS, LLC",,38.607957,-75.775786,39874,39874,,,,,Registered,,41943,2009-CCD-0196,
,66765,,,,"5405 Wesley Rd, Hurlock MD 21643",Dorchester,CAFO,"BARNES FAMILY FARMS, LLC/WESLEY ROAD FARM",,38.618602,-75.781045,41887,40409,70000,Chickens-not laying hens-dry,,,Registered,,41941,2010-CCD-0686,
,132862,40529,,,"24073 E. Hurleys Neck Rd, Mardela Springs MD 21837",Wicomico,CAFO,BARRY DOUGLAS MALPASS/OVEREASY AND KATHY TOO FARMS,,38.415578,-75.778382,,40529,128500,Chickens-not laying hens-dry,,,Registered,,41087,2010-CCD-0445,
,129180,41226,,,"5941 Cokesbury Rd, Rhodesdale MD 21659",Dorchester,CAFO,BARRY SPEDDEN,,38.614811,-75.726718,,40112,204600,Chickens-not laying hens-dry,,,Registered,,41590,2009-CCD-0563,
,68938,40087,,,"6641 Whitesburg Rd, Snow Hill MD 21863",Worcester,CAFO,BARRY W. MILES/BYRDS OF A FEATHER FARM,,38.207057,-75.559931,40094,40094,58200,Chickens-not laying hens-dry,,,Registered,,40371,2009-CCD-0009,
,68934,40044,,,"12033 Petes Hill Rd, Princess Anne MD 21853",Somerset,CAFO,BARRY W. MILES/TWO CATS AND FIVE DOGS FARMS,,38.209878,-75.584525,,40094,166600,Chickens-not laying hens-dry,,,Registered,,40483,2009-CCD-0006,
,67047,41296,,,"7779 Holt Rd, Parsonsburg MD 21849",Wicomico,CAFO,BEAVER RUN FARM INC./QUINT RILEY FARM,,38.405027,-75.500899,41470,39868,42000,Chickens-not laying hens-dry,,,Registered,,41534,2009-CCD-0113,
,66638,40175,,,"1023 Colona Rd, Pocomoke City MD 21851",Worcester,CAFO,BEN LIM/EMANNUEL AND BEN'S FARM,,38.013675,-75.601539,39875,39875,120000,Chickens-not laying hens-dry,,,Registered,,40672,2009-CCD-0025,
,67925,41691,,,"9265 Amber Ln, Westover MD 21871",Somerset,CAFO,BEN NGUYEN,,38.140029,-75.733782,,41691,104000,Chickens-not laying hens-dry,,,Registered,,41705,2009-CCD-0334,
,129684,40135,,,"31798 W. Post Office Rd, Princess Anne MD 21853",Somerset,CAFO,BEN NGUYEN/TOPTON FARM,,38.212233,-75.650021,,40135,410000,Chickens-not laying hens-dry,,,Registered,,40694,2009-CCD-0059,
,68052,40624,,,"3646 Sheephouse Rd, Pocomoke City MD 21851",Worcester,CAFO,BENJAMIN AYDELOTTE/SHEEPHOUSE FARM,,38.043835,-75.496726,39967,39874,92000,Chickens-not laying hens-dry,,,Registered,,40983,2009-CCD-0198,
,66984,40260,,,"30560 Charles Barnes Rd, Westover MD 21871",Somerset,CAFO,BERT RAMSAY/SANDY BEACH FARM,,38.068072,-75.694967,,41172,107000,Chickens-not laying hens-dry,,,Registered,,41740,2009-CCD-0556,
,67996,41400,,,"4119 Bestpitch Ferry Rd, Cambridge MD 21613",Dorchester,CAFO,BERT WEBER/PRIDE ROCK FARM,,38.449005,-76.028301,39954,41435,41000,Chickens-not laying hens-dry,,,Registered,,41514,2009-CCD-0199,
,130686,40266,,,"25056 E. Cherry Ln, Greensboro MD 21639",Caroline,CAFO,"BETTER DAYS FARM OPERATIONS, LLC",,39.007774,-75.839374,40764,40284,300000,Chickens-not laying hens-dry,,,Registered,,40623,2009-CCD-0042,
,66704,41148,,,"3509 Follow Ditch Rd, Princess Anne MD 21853",Somerset,CAFO,BILL MILLER FARM,,38.14261, -75.617008,,39874,128000,Chickens-not laying hens-dry,,,Registered,,41614,2009-CCD-0511,
,67160,41100,,,"32832 Shavox Rd, Parsonsburg MD 21849",Wicomico,CAFO,BILLY JOE TOMLINSON FARM,,38.359682,-75.477728,40703,39874,59200,Chickens-not laying hens-dry,,,Registered,,41304,2009-CCD-0200,
,67147,41711,,,"36540 Sheppard Crossing Rd36555 Sheppard Crossing Rd, Willards MD 21874",Wicomico,CAFO,BLAIR C. RENNEBERGER/SHEPPARDS CROSSSING FARM,,38.441913,-75.34316,39869,39869,63600,Chickens-not laying hens-dry,,,Registered,,41794,2009-CCD-0119,
,67928,41557,,,"28964 Waller Rd, Delmar MD 21875",Wicomico,CAFO,BLAIR MITCHELL FARMS,,38.450991,-75.606759,41557,39885,88000,Chickens-not laying hens-dry,,,Registered,,41677,2009-CCD-0677,
,67184,40723,,,"10359 Georgetown Rd, Berlin MD 21811",Worcester,CAFO,"BOB'S FARM, INC.",,38.349769,-75.202158,39863,39863,112000,Chickens-not laying hens-dry,,,Registered,,41520,2009-CCD-0091,
,68669,40421,,,"4160 Laurel Grove Rd, Federalsburg MD 21632",Caroline,CAFO,BONNIE AND HENRY OSTERMANN,,38.721516,-75.809968,40051,40051,38200,Chickens-not laying hens-dry,,,Registered,,40623,2009-CCD-0045,
,136467,40913,,,"6704 Worcester Hwy, Newark MD 21841",Worcester,CAFO,BONNIE LEWIS/HAMMOND FARM,,38.234102,-75.315051,40919,40919,50000,Chickens-not laying hens-dry,,,Registered,,40977,2012-CCD-0575,
,31600,41920,,,"12107 Boyd Rd, Clear Spring MD 21722",Washington,CAFO,"BRAGUNIER FARM, LLC",,39.645964, -77.947908,40953,40273,1000,Cattle - includes heifers,,,Registered,,41967,2010-CCA-0084,
,67889,40666,,,"10985 Riverton Rd, Mardela Springs MD 21837",Wicomico,CAFO,BRENDA K. ALLEN/JUNE PERSONS FARM,,38.495662,-75.763964,40444,39870,40500,Chickens-not laying hens-dry,,,Registered,,40911,2009-CCD-0136,
,67183,40170,,,"630 Dun Swamp Rd, Pocomoke City MD 21851",Worcester,CAFO,"BRIAN DERRICKSON/ CHICKEN CITY, LITTLE BD FARM",,38.023316,-75.558835,40170,39867,235000,Chickens-not laying hens-dry,,,Registered,,40802,2009-CCD-0101,
,143865,41774,,,"3232 St. Lukes Rd, Salisbury MD 21804",Wicomico,CAFO,BRIAN JONES / B & C FARM,,38.28121,-75.572717,,41774,90000,Chickens-not laying hens-dry,,,Registered,,41838,2014-CCD-0694,
,66705,41515,,,"28179 Venton Rd, Princess Anne MD 21853",Somerset,MAFO,BRIAN LAIRD FARM,,38.194417,-75.774354,39884,39863,92000,Chickens-not laying hens-dry,,,Registered,,41794,2009-MCD-0479,
,143624,41754,,,"1143 Buck Harbor Rd, Pocomoke City MD 21851",Worcester,CAFO,BRIAN STERLING,,38.040105, -75.517955,,41754,,,,,Registered,,41810,2014-CCD-0692,
,67942,40625,,,"2311 Payne Rd3064 Brantley Rd, Pocomoke City MD 21851",Worcester,CAFO,BROOKS AYDELOTTE/PEACE & PLENTY FARM & ROOSTERS AND ROSES,,38.027761,-75.525137,39967,39874,210000,Chickens-not laying hens-dry,,,Registered,,41040,2009-CCD-0202,
,67233,40428,,,"2444 Lambertson Rd, Pocomoke City MD 21851",Worcester,CAFO,"BROTHERS CHICKEN FARM, INC.",,38.080757,-75.495847,39863,39863,260000,Chickens-not laying hens-dry,,,Registered,,40815,2009-CCD-0092,
,67063,40919,,,"7954 &7960 Brown Rd, Salisbury MD 21801",Wicomico,CAFO,BROWN LAND & CHICKEN CO. LIMITED PARTNERSHIP,,38.410784,-75.552956,39863,39863,144000,Chickens-not laying hens-dry,,,Registered,,40977,2009-CCD-0093,
,66939,40599,,,"23670 Willow Pond Rd, Denton MD 21629",Caroline,CAFO,BRUCE BARTZ/TUCKAHOE FARM,,38.890087,-75.883102,40599,39888,108000,Chickens-not laying hens-dry,,,Registered,,41439,2009-CCD-0344,
,132596,41015,,,"3809 Warwick Rd, Secretary MD 21664",Dorchester,CAFO,BRUCE J. TWILLEY/TWILLEY FARM,,38.61993,-75.951998,40529,40499,54000,Chickens-not laying hens-dry,,,Registered,,41131,2010-CCD-0437,
,66841,40228,,,"11429 Holly Rd, Ridgely MD 21660",Caroline,CAFO,BRUCE SAIA/LAZY ACRES BP POULTRY,,38.919964,-75.855709,39863,39863,150000,Chickens-not laying hens-dry,,,Registered,,40667,2009-CCD-0094,
,67174,40631,,,"7658 Davis Rd, Whaleyville MD 21872",Worcester,CAFO,"BRYAN J. TRUITT/ALL IN, NO LIMIT, HUDSON FARM, SAMATHA TRUITT",,38.411734,-75.312679,39874,39874,256000,Chickens-not laying hens-dry,,,Registered,,41439,2009-CCD-0203,
,67069,41019,,,"3926 Webb Rd, Pittsville MD 21850",Wicomico,CAFO,C & D CHICKEN CORPORATION,,38.298838,-75.374454,39874,39874,41600,Chickens-not laying hens-dry,,,Registered,,41205,2009-CCD-0204,
,68041,40365,,,"218 Legion Rd, Millington MD 21651",Kent,CAFO,C & M ELLINGSWORTH INC.,,39.246528,-75.868551,39869,39869,94000,Chickens-not laying hens-dry,,,Registered,,40983,2009-CCD-0120,
,66597,39870,,,"1709 Barclay Rd, Queen Anne MD 21607",Queen Anne's,CAFO,C. DALE STORY/VIILAGE VIEW FARM,,38.125403,-75.733026,41333,39870,65000,Chickens-not laying hens-dry,,,Registered,,41414,2009-CCD-0137,
,66707,41642,,,"9001 Ring Rd, Westover MD 21871",Somerset,CAFO,C.ANDERSON FARM,,38.12793,-75.735497,41907,41359,38000,Chickens-not laying hens-dry,,,Registered,,41967,2009-CCD-0540,
,66936,40588,,,"4734 Newton Rd, Preston MD 21655",Caroline,CAFO,CALVIN TAYLOR,,38.740067,-75.90912,39870,39870,55200,Chickens-not laying hens-dry,,,Registered,,41058,2009-CCD-0138,
,67796,40438,,,"26437 Cottman Rd, Eden MD 21822",Worcester,CAFO,"CARL A. WILSON, JR./WILSON POULTRY FARM",,38.281845,-75.693433,40367,39861,54400,Chickens-not laying hens-dry,,,Registered,,40802,2009-CCD-0086,
,66972,40753,,,"4425 Maple Dam Rd, Cambridge MD 21613",Dorchester,CAFO,CARROLL HANDLEY/JEWS FARM,,38.474651,-76.066307,40365,39846,106800,Chickens-not laying hens-dry,,,Registered,,40977,2009-CCD-0085,
,67108,40514,,,"26404 Jacksons Wharf Lane, Eden MD 21822",Worcester,CAFO,CASHER W HITCHENS,,38.337622,-75.697728,39868,39868,59900,Chickens-not laying hens-dry,,,Registered,,41514,2009-CCD-0114,
,67192,40368,,,"8744 Cedar Lane Rd, Berlin MD 21811",Worcester,CAFO,CEDAR LIVESSTOCK FARM LLC,,38.323428,-75.272576,39884,39884,145000,Chickens-not laying hens-dry,,,Registered,,40928,2009-CCD-0336,
,130034,40676,,,"6021 Tyson Lane, Snow Hill MD 21863",Worcester,CAFO,"CEDAR MOUNTAIN FARMS, LLC",,38.190812,-75.37812,40190,40189,213000,Chickens-not laying hens-dry,,,Registered,,41520,2010-CCD-0392,
,66628,40875,,,"11245 Perryhawkin Church Rd, Princess Anne MD 21853",Somerset,CAFO,CHANG SOO YOUN/ALEX FARM,,38.188211,-75.577,39874,39874,57200,Chickens-not laying hens-dry,,,Registered,,41439,2009-CCD-0206,
,23565,40665,,,"6319 Mountain Church Rd, Jefferson MD 21755",Frederick,CAFO,"CHAR MAR DAIRY FARM, INC.",,39.407333,-77.630963,41873,40203,1300,Dairy Cattle,,,Registered,,41971,2010-CDC-0398,
,66843,41015,,,"25829 Three Bridges Rd, Federalsburg MD 21632",Caroline,CAFO,CHARLES A. MATTHEWS FARM,,38.735099,-75.811275,39875,39875,55000,Chickens-not laying hens-dry,,,Registered,,41523,2009-CCD-0262,
,133220,41739,,,"8214 Burnt Mill Rd, Willards MD 21874",Wicomico,CAFO,CHARLES ALLAN WEST/FREEDOM FARM,,38.415654,-75.386021,40581,40581,75000,Chickens-not laying hens-dry,,,Registered,,41820,2011-CCD-0454,
,67795,40438,,,"3910 Poplar Neck Rd, Preston MD 21655",Caroline,CAFO,CHARLES BALL/BALL FARM,,38.717668,-75.949497,41288,40059,45000,Chickens-not laying hens-dry,,,Registered,,40623,2009-CCD-0043,
,133112,40252,,,"4326 Jacksonville Rd, Crisfield MD 21817",Somerset,CAFO,CHARLES LAIRD/LAIRD FARM,,38.002862,-75.843505,40252,39868,21400,Chickens-not laying hens-dry,,,Registered,,40564,2009-CCD-0037,
,68036,40252,,,"4326/4720 Jacksonville Rd, Crisfield MD 21817",Somerset,CAFO,CHARLES LAIRD/ROSS FARM,,38.017471,-75.831622,39868,39868,120000,Chickens-not laying hens-dry,,,Registered,,40564,2009-CCD-0038,
,67120,40436,,,"9350 Old Railroad Rd, Mardela Springs MD 21837",Wicomico,CAFO,CHARLES WRIGHT/MC FARMS & TIM WRIGHT FARM,,38.452068,-75.701348,,39877,80000,Chickens-not laying hens-dry,,,Registered,,40805,2009-CCD-0306,
,67193,39878,,,"1826 Pocomoke Beltway, Pocomoke City MD 21851",Worcester,CAFO,CHINH NGUYEN,,38.05344,-75.571731,39878,39878,114000,Chickens-not laying hens-dry,,,Registered,,40371,2009-CCD-0008,
,66828,40421,,,"6288 Statum Rd, Preston MD 21655",Caroline,CAFO,"CHITTLE SAYLOR, JR./IDLE HOUR FARM",,38.781576,-75.867264,41137,39874,65050,Chickens-not laying hens-dry,,,Registered,,40623,2009-CCD-0044,
,67250,41778,,,"8936 Cedar Lane Rd, Berlin MD 21811",Worcester,CAFO,CHRISTOPHER BRYAN WIDGEON/TRAILS END,,38.317821,-75.260162,,41778,63000,Chickens-not laying hens-dry,,,Registered,,41950,2014-CCD-0316,
,66803,40497,,,"25920 Shults Rd, Henderson MD 21640",Caroline,CAFO,CHRISTOPHER D HARRIS/HOME FARM,,39.05358,-75.84709,41613,39878,42800,Chickens-not laying hens-dry,,,Registered,,41697,2009-CCD-0318,
,136485,40422,,,"16343 Oakland Rd, Henderson MD 21640",Caroline,CAFO,CHRISTOPHER D. HARRIS/BALTIMORE CORNER FARM,,39.106828,-75.800205,41613,40917,50000,Chickens-not laying hens-dry,,,Registered,,41697,2012-CCD-0619,
,140060,41884,,,"6215 George Island Landing Rd, Stockton MD 21864",Worcester,CAFO,CHRISTOPHER L & ALLISON RIDDLEBERGER,,38.048987,-75.383739,41547,41547,82200,Chickens-not laying hens-dry,,,Registered,,41940,2013-CCD-0670,
,68891,40088,,,"4231 Paul Gumby Rd, Marion Station MD 21838",Somerset,CAFO,CHRISTOPHER LYONS/LYONS PRIDE FARMS,,37.99786,-75.770613,40088,40088,107600,Chickens-not laying hens-dry,,,Registered,,40905,2009-CCD-0379,
,68892,40088,,,"9458 Old Princess Anne Rd, Westover MD 21871",Somerset,CAFO,CHRISTOPHER LYONS/SOMERSET FARMS,,38.140207,-75.685937,40088,40088,162200,Chickens-not laying hens-dry,,,Registered,,40694,2009-CCD-0071,
,66530,41652,,,"415 Cosden Rd, Barclay MD 21607",Queen Anne's,CAFO,CHRISTOPHER WRIGHT FARM,,39.158566,-75.883823,,41596,82500,Chickens-not laying hens-dry,,,Registered,,41701,2009-CCD-0271,
,67247,40596,,,"14470 Backbone Rd, Eden MD 21822",Somerset,CAFO,CLARA LEE/SUN FARM,,38.277629,-75.61524,39890,39874,46000,Chickens-not laying hens-dry,,,Registered,,40181,2009-CCD-0207,
,67810,40708,,,"8749 Bethel Rd, Willards MD 21874",Wicomico,CAFO,CLAY R. LITTLETON/NO REGRETS AND STACY'S CHOICE FARMS,,38.430166,-75.355931,,39870,99500,Chickens-not laying hens-dry,,,Registered,,41563,2009-CCD-0141,
,138756,41320,,,"8575 Littleton Rd, Willards MD 21874",Wicomico,CAFO,CLAY R. LITTLETON/WIDE LOOP FARM,,38.424088,-75.336993,,41198,55000,Chickens-not laying hens-dry,,,Registered,,41514,2012-CCD-0662,
,66697,41071,,,"7186 Virgina Bowland Rd, Westover MD 21871",Somerset,CAFO,CLIFTON GORDON TAYLOR III/DEAD END FARM,,38.079435,-75.699313,,41071,150000,Chickens-not laying hens-dry,,,Registered,,41414,2012-CCD-0014,
,66995,40448,,,"29140 Hudson Corner Rd, Marion Station MD 21838",Somerset,CAFO,CLIFTON GORDON TAYLOR III/SUNSHINE FARM,,38.041418,-75.746369,,39864,70000,Chickens-not laying hens-dry,,,Registered,,41416,2009-CCD-0483,
,67177,40897,,,"10317 Bishopville Rd, Bishopville MD 21813",Worcester,CAFO,CLINTON W. DAVIDSON/BANKS FARM,,38.436574,-75.206337,39870,39870,112000,Chickens-not laying hens-dry,,,Registered,,41131,2009-CCD-0493,
,67908,40438,,,"22719 Thawley Rd, Denton MD 21629",Caroline,CAFO,"CLOPPER FARMS, INC. (FORMERLY MARC AND CINDY CLOPPER)",,38.880653,-75.915362,39927,39974,60000,Chickens-not laying hens-dry,,,Registered,,40771,2009-CCD-0372,
,67074,40470,,,"35710 Cobbs Hill Rd, Willards MD 21874",Wicomico,CAFO,COBBS HILL FARM,,38.423995,-75.371592,,41173,80000,Chickens-not laying hens-dry,,,Registered,,41381,2009-CCD-0487,
,67811,41614,,,"33270 Dublin Rd, Princess Anne MD 21853",Somerset,CAFO,"COTTMAN FARMS, INC.",,38.149501,-75.600218,,41166,105000,Chickens-not laying hens-dry,,,Registered,,41740,2009-CCD-0484,
,66823,41010,,,"25715 Three Bridges Rd, Federalsburg MD 21632",Caroline,CAFO,CURTIS WILLIN/HILL-N-DALE,,38.739885,-75.815243,40361,39884,84000,Chickens-not laying hens-dry,,,Registered,,41218,2009-CCD-0337,
,66975,40487,,,"4505 Maple Dam Rd, Cambridge MD 21613",Dorchester,CAFO,D & C ENTERPRISES INC.,,38.480306,-76.075038,40798,39869,35000,Chickens-not laying hens-dry,,,Registered,,40766,2009-CCD-0121,
,66804,40546,,,"22690 Havercamp Rd, Preston MD 21655",Caroline,CAFO,DALE HARRISON FARM,,38.708775,-75.919978,39891,39874,34800,Chickens-not laying hens-dry,,,Registered,,40905,2009-CCD-0208,
,132671,,,,"4756 Smithville Road, Federalsburg MD 21632",Caroline,MAFO,"DALE LESLIE WRIGHT, JR.",,38.737779,-75.763273,41736,40511,138000,Chickens-not laying hens-dry,,,Registered,,41900,2010-MCD-0573,
,66596,41169,,,"1816 Price Station Rd, Queen Anne MD 21623",Queen Anne's,CAFO,DANIEL C. HELLER,,39.083646,-75.93681,,41169,78000,Chickens-not laying hens-dry,,,Registered,,41362,2012-CCD-0110,
,66799,40448,,,"110 Ferrell Farm Lane, Henderson MD 21640",Caroline,CAFO,DANIEL FERRELL FARM,,39.08812,-75.851306,39898,39863,96000,Chickens-not laying hens-dry,,,Registered,,40802,2009-CCD-0095,
,67144,40183,,,"8475 New Hope Rd, Willards MD 21874",Wicomico,CAFO,DANIEL RAYNE/RAYNE ACRES,,38.420506,-75.357704,39882,39882,110000,Chickens-not laying hens-dry,,,Registered,,40672,2009-CCD-0017,
,66951,40532,,,"12591 Kibler Rd, Greensboro MD 21639",Caroline,CAFO,DANNY AND BOBBIE REED/WINTERHAWK FARM,,38.952265,-75.765761,39871,40332,82000,Chickens-not laying hens-dry,,,Registered,,41017,2010-CCD-0175,
,132828,40970,,,"8129 Hurleys Neck Rd, Mardela Springs MD 21837",Wicomico,CAFO,DAVID & REBECCA CALLOWAY/BAY BREEZE FARM,,38.418286,-75.804388,,40532,84000,Chickens-not laying hens-dry,,,Registered,,41523,2010-CCD-0446,
,130599,40970,,,"8640 Athol Rd, Mardela Springs MD 21837",Wicomico,CAFO,DAVID & REBECCA CALLOWAY/DAVID & BECKY'S FARM,,38.434896,-75.789867,,40269,140000,Chickens-not laying hens-dry,,,Registered,,41523,2010-CCD-0402,
,107521,41484,,,"7000 Blk Hynson Rd, Hurlock MD 21643",Dorchester,CAFO,DAVID BRAMBLE/BRAMBLE FARM,,38.686513,-75.844501,,41464,89600,Chickens-not laying hens-dry,,,Registered,,41549,2013-CCD-0659,
,67878,40115,,,"1218 Hope Rd, Centreville MD 21617",Queen Anne's,CAFO,DAVID CONLEY/HOPE TWO FARM,,39.041629,-75.98499,40904,39882,52000,Chickens-not laying hens-dry,,,Registered,,40983,2009-CCD-0325,
,67219,41627,,,"8339 Little Brown Rd, Salisbury MD 21804",Worcester,CAFO,DAVID E. NUSE SR. FARM,,38.271755,-75.592282,40357,39874,80000,Chickens-not laying hens-dry,,,Registered,,41764,2009-CCD-0209,
,67158,40578,,,"26657 Siloam Rd, Salisbury MD 21801",Wicomico,CAFO,DAVID G. POLLOCK/TEASPOON FARM,,38.325857,-75.693916,39876,39876,80000,Chickens-not laying hens-dry,,,Registered,,40983,2009-CCD-0284,
,66670,39870,,,"7569 Hayward Rd, Pocomoke City MD 21851",Worcester,CAFO,DAVID HOFFMAN,,38.088144,-75.585386,39870,39870,155000,Chickens-not laying hens-dry,,,Registered,,40371,2009-CCD-0005,
,67129,41109,,,"7018 Whiteley Rd, Federalsburg MD 21632",Caroline,CAFO,DAVID HOWARD,,38.681469, -75.808777,39870,39870,73500,Chickens-not laying hens-dry,,,Registered,,41677,2009-CCD-0494,
,66870,40702,,,"24715 Richardson Rd, Federalsburg MD 21632",Caroline,CAFO,DAVID HUBBLE/RAINBOW'S END FARM,,38.750508,-75.848735,41505,39884,90000,Chickens-not laying hens-dry,,,Registered,,41582,2009-CCD-0338,
,67813,40732,,,"25801 Bee Tree Rd, Henderson MD 21640",Caroline,CAFO,DAVID L. HARRIS,,39.075727,-75.802738,41318,39871,85000,Chickens-not laying hens-dry,,,Registered,,41514,2009-CCD-0176,
,129920,40161,,,"1717 Roberts Station Rd, Church Hill MD 21623",Queen Anne's,CAFO,DAVID M. CLARK III,,39.108844,-75.908499,,40169,72000,Chickens-not laying hens-dry,,,Registered,,40802,2009-CCD-0390,
,66986,40134,,,"26875 Johnson Creek Rd, Crisfield MD 21817",Somerset,CAFO,DAVID MACNEAL/SHELDARA FARM,,37.973282,-75.823974,41360,39869,54000,Chickens-not laying hens-dry,,,Registered,,41414,2009-CCD-0122,
,67225,41127,,,"3410 Redden Rd, Pocomoke City MD 21851",Worcester,CAFO,DAVID PILCHARD FARM,,38.064312,-75.50832,39863,40756,153000,Chickens-not laying hens-dry,,,Registered,,41315,2009-CCD-0480,
,67096,40904,,,"7738 Parsonsburg Rd, Parsonsburg MD 21849",Wicomico,CAFO,DAVID SHOCKLEY/HARDWAY FARM,,38.404198,-75.472373,39874,39874,116000,Chickens-not laying hens-dry,,,Registered,,41089,2009-CCD-0211,
,132605,41878,,,"435 Ebert Road, Union Bridge MD 21791",Carroll,CAFO,DAVID THOMAS PYLE/COW COMFORT INN DAIRY,,39.59318,-77.154896,41885,41450,365,Dairy Cattle,,,Registered,,41940,2013-CDC-0436,
,66943,40983,,,"12847 River Rd, Ridgely MD 21660",Caroline,CAFO,"DAVID TRIBBETT, JR./RIVER ROAD FARM",,38.959773,-75.856966,39874,39874,68000,Chickens-not laying hens-dry,,,Registered,,41324,2009-CCD-0212,
,67146,41082,,,"32791 Roy West Rd, Delmar MD 21875",Wicomico,CAFO,DAVID WEST/RUBY WEST,,38.443721,-75.473797,41703,39870,153000,Chickens-not laying hens-dry,,,Registered,,41322,2009-CCD-0162,
,129271,40647,,,"5971 Bethlehem Rd, Preston MD 21655",Caroline,CAFO,DAVID WILLIAM & MARGARET ANN ROGERS,,38.770431,-75.894172,41170,40122,50000,Chickens-not laying hens-dry,,,Registered,,41563,2009-CCD-0386,
,66954,41169,,,"9067 Bloxom Rd, Denton MD 21629",Caroline,CAFO,"DAVID WOOD/WOOD HAVEN,WOOD INSPIRED,WOOD ENTERPRISE",,38.85652,-75.885418,41368,41156,206000,Chickens-not laying hens-dry,,,Registered,,41381,2012-CCD-0496,
,66519,40420,,,"164 Deerfielde Farm Rd, Centreville MD 21617",Queen Anne's,CAFO,DEERFIELDE FARM,,39.074681,-76.048934,40948,39874,79900,Chickens-not laying hens-dry,,,Registered,,40814,2009-CCD-0228,
,67073,40548,,,"8540 Athol Rd, Mardela Springs MD 21837",Wicomico,CAFO,DENISE CALLOWAY/CLAY ISLAND FARM,,38.429612,-75.788207,39876,39876,100000,Chickens-not laying hens-dry,,,Registered,,40983,2009-CCD-0285,
,67039,40638,,,"28180 Waller Rd, Salisbury MD 21801",Wicomico,CAFO,DENNIS ADKINS/APPLETREE FARM,,38.454048,-75.634874,39871,39871,84700,Chickens-not laying hens-dry,,,Registered,,41439,2009-CCD-0177,
,67058,40749,,,"6981 Powellville Rd, Willards MD 21874",Wicomico,CAFO,DENNIS BRADFORD,,38.380234,-75.356255,39877,39877,58000,Chickens-not laying hens-dry,,,Registered,,40827,2009-CCD-0307,
,66849,40234,,,"4381 Nichols Rd, Federalsburg MD 21632",Caroline,CAFO,DENNIS C. NAGEL JR,,38.728906,-75.805246,39877,39877,99000,Chickens-not laying hens-dry,,,Registered,,40644,2009-CCD-0053,
,132635,40234,,,"5801 Laurel Grove Rd, Federalsburg MD 21632",Caroline,CAFO,DENNIS NAGEL/MIRIBROOK FARM,,38.766863,-75.840059,,40504,80000,Chickens-not laying hens-dry,,,Registered,,40644,2009-CCD-0054,
,66663,39874,,,"3667 Freedom town Rd, Crisfield MD 21817",Somerset,CAFO,DENNIS VIENS/CASA GRANDE FARM,,37.983101,-75.829223,39874,39874,195000,Chickens-not laying hens-dry,,,Registered,,40623,2009-CCD-0046,
,66520,40366,,,"723 Damsontown Rd, Queen Anne MD 21657",Queen Anne's,CAFO,DENNY FARM LLC,,38.973721,-75.96963,39876,39876,87500,Chickens-not laying hens-dry,,,Registered,,40802,2009-CCD-0286,
,129277,40927,,,"27039 Crisfield Marion Rd, Crisfield MD 21817",Somerset,CAFO,DONALD HOWARD FARM,,38.019864,-75.808805,,40119,75000,Chickens-not laying hens-dry,,,Registered,,41010,2009-CCD-0383,
,67045,40471,,,"7625 New Hope Rd, Willards MD 21874",Wicomico,CAFO,DONALD J. HUDSON/HITCHING POST FARM,,38.398341,-75.326124,,39882,43000,Chickens-not laying hens-dry,,,Registered,,40812,2009-CCD-0326,
,67152,40904,,,"31202 Dagsboro Rd, Salisbury MD 21804",Wicomico,CAFO,DONALD SHOCKLEY/DON-LIN,,38.417896,-75.530689,39885,39885,86800,Chickens-not laying hens-dry,,,Registered,,41089,2009-CCD-0341,
,66873,40941,,,"27264 Greenwood Rd, Denton MD 21629",Caroline,CAFO,DONNA WRIGHT/RUNNING ON EMPTY,,38.831133,-75.757658,39871,39871,96840,Chickens-not laying hens-dry,,,Registered,,41009,2009-CCD-0178,
,66669,41614,,,"14450 Reading Ferry Rd, Princess Anne MD 21853",Somerset,CAFO,DOUG READING,,38.27635,-75.755368,41736,41171,75000,Chickens-not laying hens-dry,,,Registered,,41900,2009-CCD-0527,
,67092,41296,,,"24688 Porter Mill Rd, Hebron MD 21830",Wicomico,CAFO,DOUGLAS E. GROVE/GROVE FARM,,38.418961,-75.759113,39874,39874,135400,Chickens-not laying hens-dry,,,Registered,,41423,2009-CCD-0214,
,67022,41201,,,"5027 River Rd, Hurlock MD 21643",Dorchester,CAFO,DOUGLAS JAMES CALLOWAY/GIT-R-DONE/R-BERRY ACRES,,38.659656,-75.823433,,41170,103200,Chickens-not laying hens-dry,,,Registered,,41733,2009-CCD-0498,
,68007,40637,,,"6893 Elmo Dryden Rd, Westover MD 21871",Somerset,CAFO,DZUNG CAO/DANNY & KENNY FARM,,38.07001,-75.656339,,40382,110000,Chickens-not laying hens-dry,,,Registered,,40983,2010-CCD-0179,
,66529,41348,,,"1622 Goldsboro Rd, Queen Anne MD 21607",Queen Anne's,CAFO,E. KEITH BOSTIC/PLEASANT VIEW FARM,,39.132865,-75.868092,41318,41348,187200,Chickens-not laying hens-dry,,,Registered,,41414,2009-CCD-0180,
,142503,41744,,,"3039 Jesterville Rd, Bivalve MD 21814",Wicomico,CAFO,EARL M.BEARDSLEY JR. / EARL BEARDSLEY FARM,,38.278606,-75.891,41662,41662,62000,Chickens-not laying hens-dry,,,Registered,,41796,2014-CCD-0689,
,67198,40626,,,"8429 Whaleyville Rd, Whaleyville MD 21872",Worcester,CAFO,ED EVANS FARM,,38.413856,-75.282227,39874,39874,55000,Chickens-not laying hens-dry,,,Registered,,41010,2009-CCD-2015,
,67830,40609,,,"5239 Taylor Rd, Snow Hill MD 21863",Worcester,CAFO,ED PHILLIPS FARM,,38.17337,-75.302155,39870,39870,52000,Chickens-not laying hens-dry,,,Registered,,41520,2009-CCD-0143,
,67831,40382,,,"9334 Evans Rd, Berlin MD 21811",Worcester,CAFO,EDWARD LEWTON WARREN/MOTEL CHIX,,38.320628,-75.237146,39888,39888,110000,Chickens-not laying hens-dry,,,Registered,,40827,2009-CCD-0345,
,67026,41828,,,"13291 Church Lane, Cordova MD 21625",Talbot,CAFO,EDWARD RHODES/NOBLE MEADOWS FARM,,38.916178, -76.011816,41795,41696,120000,Chickens-not laying hens-dry,,,Registered,,41866,2014-CCD-0027,
,67224,41667,,,"12913 Sheppards Crossing Rd, Whaleyville MD 21872",Worcester,CAFO,EDWARD T. PHILLIPS/EDWARD & LISA PHILLIPS FARM,,38.436046,-75.328503,,39870,68000,Chickens-not laying hens-dry,,,Registered,,41750,2009-CCD-0499,
,66846,40973,,,"5295 Federalsburg Hwy, Federalsburg MD 21632",Caroline,CAFO,EDWIN & DORIS MEREDITH,,38.75057,-75.787111,41382,39870,54000,Chickens-not laying hens-dry,,,Registered,,41439,2009-CCD-0144,
,67794,40935,,,"6189 American Corner Rd, Denton MD 21629",Caroline,CAFO,EDWIN COLLINS/BRISK WIND FARMS,,38.778101,-75.814135,39920,39870,60000,Chickens-not laying hens-dry,,,Registered,,41029,2009-CCD-0145,
,68053,41788,,,"2902 Payne Rd, Pocomoke City MD 21851",Worcester,CAFO,ELAINE MCNURE/SOUTH BRANCH FARM/MOE MONEY FARM,,38.004652,-75.528143,,39895,175500,Chickens-not laying hens-dry,,,Registered,,41845,2009-CCD-0352,
,66539,40759,,,"31350 Curtis Chapel Rd, Westover MD 21871",Somerset,CAFO,ELCEED FARMS INC.,,38.121494,-75.665444,39878,39878,100000,Chickens-not laying hens-dry,,,Registered,,40977,2009-CCD-0319,
,133393,41103,,,"4789 Howard Rd, Federalsburg MD 21632",Caroline,CAFO,ELIZABETH A. RICHARDSON/ROBERT R. RICHARDSON FARM,,38.738229,-75.799879,40599,40599,100000,Chickens-not laying hens-dry,,,Registered,,41218,2011-CCD-0460,
,66667,40575,,,"8227 Hayward Rd, Pocomoke City MD 21851",Worcester,CAFO,ELTON DRYDEN/CHAR-LEE FARM,,38.103902,-75.589914,41208,39875,57200,Chickens-not laying hens-dry,,,Registered,,41584,2009-CCD-0528,
,66521,40970,,,"719 Deep Landing Rd, Chestertown MD 21620",Queen Anne's,MAFO,ERIC R. PARDEE,,39.23614,-75.961498,,40970,226000,Chickens-not laying hens-dry,,,Registered,,41414,2012-MCD-0497,
,134834,41299,,,"10118 Augustine Herman Hwy, Chestertown MD 21620",Kent,CAFO,"FAIR HILL FARMS, INC",,39.257573,-76.063566,41229,40729,840,Dairy Cattle,,,Registered,,41817,2011-CDC0473,
,67090,41093,,,"3608 Allen Rd, Allen MD 21810",Wicomico,CAFO,FLEMING FARMS,,38.293977,-75.685043,39874,39874,66000,Chickens-not laying hens-dry,,,Registered,,41677,2009-CCD-0231,
,130156,40581,,,"1621 Price Station Road, Church Hill MD 21623",Queen Anne's,CAFO,FLINTROCK CORPORATION,,39.08809,-75.940088,40183,40183,160800,Chickens-not laying hens-dry,,,Registered,,40905,2010-CCD-0391,
,66801,,,,"4321 Lengrell Rd, Preston MD 21655",Caroline,MAFO,FORTUNE FLOCK,,38.696982,-75.890707,41690,39877,60000,Chickens-not laying hens-dry,,,Registered,,41820,2009-MCD-0545,
,67200,41330,,,"1324 Hillman Rd, Pocomoke City MD 21851",Worcester,CAFO,FUNNY FARM,,38.040759,-75.580742,,41330,73500,Chickens-not laying hens-dry,,,Registered,,41514,2013-CCD-0663,
,68729,40716,,,"5098 Cornstack Rd, Marion Station MD 21838",Somerset,CAFO,G W CROSWELL FARM,,38.02029,-75.689773,,39876,33000,Chickens-not laying hens-dry,,,Registered,,41577,2009-CCD-0543,
,114833,41541,,,"26191 Line Rd, Denton MD 21629",Caroline,MAFO,GAREY BENJAMIN BROWN,,38.822277,-75.795835,41541,41541,97000,Chickens-not laying hens-dry,,,Registered,,41697,2013-MCD-0671,
,102148,41662,,,"31867 Rehobeth Rd, Pocomoke City MD 21851",Somerset,CAFO,GARY BEAUCHAMP/JIMMY & JOY FARM,,38.062781,-75.647108,,41338,75000,Chickens-not laying hens-dry,,,Registered,,41750,2013-CCD-0657,
,66798,40442,,,"26475 Line Rd, Federalsburg MD 21632",Caroline,CAFO,GARY COX,,38.816765,-75.78864,39875,39875,44000,Chickens-not laying hens-dry,,,Registered,,40700,2009-CCD-0074,
,66865,40266,,,"26836 County Farm Rd, Denton MD 21629",Caroline,CAFO,GARY GEISEL/PEPPER RIDGE FARM,,38.886387,-75.771852,39877,39877,105000,Chickens-not laying hens-dry,,,Registered,,40626,2009-CCD-0052,
,66821,40301,,,"25465 Linhard Lane, Greensboro MD 21639",Caroline,CAFO,GEORGE G. BOWMAN/HIDDEN RIVER FARM,,38.942582,-75.821166,41296,39870,86000,Chickens-not laying hens-dry,,,Registered,,41040,2009-CCD-0146,
,67847,40511,,,"24510 Station Rd, Denton MD 21629",Caroline,CAFO,GEORGE K. STUTZMAN,,38.897758,-75.853431,40511,39863,88200,Chickens-not laying hens-dry,,,Registered,,40815,2009-CCD-0097,
,66840,40919,,,"24726 Schuyler Rd, Goldsboro MD 21636",Caroline,CAFO,GEORGE LANDIS/LONG DAY FARM,,39.037305,-75.844335,,39876,80000,Chickens-not laying hens-dry,,,Registered,,41058,2009-CCD-0288,
,67157,41337,,,"7128 Zion Rd, Federalsburg MD 21632",Caroline,CAFO,"GEORGE NAGEL/HOME, GEM & G & B FARMS",,38.692179,-75.824389,41684,39870,125400,Chickens-not laying hens-dry,,,Registered,,41590,2009-CCD-0500,
,67159,39876,,,"5033 Clark Canning House Rd, Hurlock MD 21643",Dorchester,CAFO,GEORGE SHERMAN/POOR BOYS FARM,,38.677172,-75.81019,41025,39876,41200,Chickens-not laying hens-dry,,,Registered,,40371,2009-CCD-0003,
,66643,41813,,,"11971 Drawbridge Rd, Princess Anne MD 21853",Somerset,CAFO,"GEORGE W BARNES, III",,38.211317, -75.782914,,41334,96000,Chickens-not laying hens-dry,,,Registered,,41957,2013-CCD-0529,
,67791,41400,,,"4161 Bestpitch Ferry Rd, Cambridge MD 21613",Dorchester,CAFO,GEORGE W. WEBER & SONS INC./BEST PITCH FARM,,38.453666,-76.021558,39954,41435,100000,Chickens-not laying hens-dry,,,Registered,,41514,2009-CCD-0217,
,67843,41400,,,"4115 Bestpitch Ferry Rd, Cambridge MD 21613",Dorchester,CAFO,GEORGE W. WEBER & SONS INC/GAMBLER ACRES FARM,,38.449177,-76.028002,39954,41435,40000,Chickens-not laying hens-dry,,,Registered,,41514,2009-CCD-0218,
,67111,40392,,,"32581 Mt Hermon Rd, Parsonsburg MD 21849",Wicomico,CAFO,GERALD ADKINS/ITTY BITTY FARM,,38.344626,-75.48401,39876,39876,83600,Chickens-not laying hens-dry,,,Registered,,40802,2009-CCD-0289,
,66642,40231,,,"10785 Old Princess Anne, Princess Anne MD 21852",Somerset,CAFO,GERARD DUMSHA/GO AWAY ACRES,,38.17737,-75.680097,39861,39861,114400,Chickens-not laying hens-dry,,,Registered,,40564,2009-CCD-0029,
,67848,41067,,,"33140 West Post Office Rd, Princess Anne MD 21853",Somerset,CAFO,GHAZANFFER ALI,,38.225188,-75.601641,,39911,180000,Chickens-not laying hens-dry,,,Registered,,41543,2009-CCD-0364,
,68072,41627,,,"4890 Drawbridge Rd, Cambridge MD 21613",Dorchester,CAFO,GHUMAN FARM LLC/JUTT FARM,,38.512098,-75.964975,41586,41586,136700,Chickens-not laying hens-dry,,,Registered,,41771,2013-CCD-0675,
,67249,40640,,,"9522 Mary Rd, Berlin MD 21811",Worcester,CAFO,GILBERT W. THOMPSON JR./BILL THOMPSON AND DOUBLE B FARMS,,38.330012,-75.182281,39868,39868,173600,Chickens-not laying hens-dry,,,Registered,,41590,2009-CCD-0115,
,67902,40252,,,"13768 Frank Cornish Rd, Eden MD 21822",Worcester,CAFO,GLENN S. AINS/OLD LEATHERBURY FARM,,38.25799,-75.669251,,39874,41000,Chickens-not laying hens-dry,,,Registered,,40564,2009-CCD-0033,
,68103,40252,,,"15050 Heron's Landing, Eden MD 21822",Worcester,CAFO,GLENN S. AINS/THE FARM @ HERON'S POND,,38.293345,-75.65256,39874,39874,89400,Chickens-not laying hens-dry,,,Registered,,40564,2009-CCD-0032,
,66802,40879,,,"6241 Todd Rd, Federalsburg MD 21632",Caroline,CAFO,GOLDSBOROUGH JAMES STAFFORD III,,38.777138,-75.747283,39874,39874,51000,Chickens-not laying hens-dry,,,Registered,,41058,2009-CCD-0219,
,23561,40205,,,"11974 Blacks Station Rd, Kennedyville MD 21645",Kent,CAFO,"GRAND VIEW FARM, LLC",,39.305832,-75.953572,,40205,2700,Swine < 55 lbs,,,Registered,,40672,2009-CSL-0018,
,137777,41058,,,"29935 Connelly Mill Rd, Delmar MD 21875",Wicomico,CAFO,"GREEN HOTELS, INC.",,38.42922,-75.574322,,41058,86200,Chickens-not laying hens-dry,,,Registered,,41214,2012-CCD-0613,
,67232,40756,,,"7431 Liberty Town Rd, Berlin MD 21811",Worcester,CAFO,GREGORY P. WILKINS/RUNAWAY FARM,,38.3075,-75.321699,40386,39912,160000,Chickens-not laying hens-dry,,,Registered,,40830,2009-CCD-0365,
,67155,40889,,,"31784 Fred Adkins Rd, Parsonsburg MD 21849",Wicomico,CAFO,"H & B FARMS, INC./ANGIE & CHRISTY ACRES",,38.389191,-75.510173,40445,39883,142000,Chickens-not laying hens-dry,,,Registered,,41005,2009-CCD-0331,
,67153,40889,,,"4144 Stockyard Rd, Eden MD 21822",Wicomico,CAFO,"H & B FARMS, INC./STOCKYARD FARM",,38.306689,-75.649509,40445,39883,55800,Chickens-not laying hens-dry,,,Registered,,41005,2009-CCD-0332,
,67258,41584,,,"1445 Boston Rd, Pocomoke City MD 21851",Worcester,CAFO,HAN KIM HOANG/VINA AND PHAN FARMS,,38.048853,-75.505612,41604,39875,170000,Chickens-not laying hens-dry,,,Registered,,41677,2009-CCD-0265,
,67143,40808,,,"9435 Melson Church Rd, Delmar MD 21875",Wicomico,CAFO,HANADI ELBAF/RANAND FARM,,38.450879,-75.477034,39869,39869,46700,Chickens-not laying hens-dry,,,Registered,,40899,2009-CCD-0123,
,66786,41082,,,"22295 Havercamp Rd, Preston MD 21655",Caroline,CAFO,HARLAN DAVIS/HOME AND ALBERT FARMS,,38.711528,-75.937014,39874,39874,94600,Chickens-not laying hens-dry,,,Registered,,41212,2009-CCD-0194,
,66805,41011,,,"24716 Auction Rd, Federalsburg MD 21632",Caroline,CAFO,HARMONY FARMS LLC,,38.766816,-75.809052,39874,39874,126,Dairy Cattle,,,Registered,,41131,2009-CCD-0220,
,66805,41011,,,"24716 Auction Rd, Federalsburg MD 21632",Caroline,CAFO,HARMONY FARMS LLC,,38.766816,-75.809052,39874,39874,154,Cattle - includes heifers,,,Registered,,41131,2009-CCD-0220,
,66817,40585,,,"26826 Baker Rd, Denton MD 21629",Caroline,CAFO,HARRY AND PATRICIA JONES/SON SHINE FARM,,38.907876,-75.775767,39864,39864,75000,Chickens-not laying hens-dry,,,Registered,,41523,2009-CCD-0099,
,67113,41484,,,"21208 Insley Dr, Tyaskin MD 21865",Wicomico,CAFO,HARRY J. WEST III,,38.316542,-75.880536,,41484,45900,Chickens-not laying hens-dry,,,Registered,,41569,2009-CCD-0226,
,133002,40494,,,"4055 Jesterville Rd, Tyaskin MD 21865",Wicomico,CAFO,"HARRY J. WEST, III/WEST ACRES",,38.306285,-75.870645,,40549,49000,Chickens-not laying hens-dry,,,Registered,,41075,2011-CCD-0450,
,133026,40520,,,"4440 Tyaskin Rd, Tyaskin MD 21865",Wicomico,CAFO,"HARRY J. WEST, JR./DOUBLE B FARM",,38.318401,-75.877465,,40546,46700,Chickens-not laying hens-dry,,,Registered,,41075,2011-CCD-0448,
,67874,40606,,,"25891 Three Bridges Rd, Federalsburg MD 21632",Caroline,CAFO,HARRY NAGEL/HAY JAY ACRES,,38.732153,-75.810391,41376,39989,60000,Chickens-not laying hens-dry,,,Registered,,41439,2009-CCD-0373,
,130446,40477,,,"12798 Crouse Mill Rd, Ridgely MD 21660",Caroline,CAFO,"HAVING FAITH FARM, LLC",,38.956772,-75.919848,40204,40204,90000,Chickens-not laying hens-dry,,,Registered,,40723,2009-CCD-0076,
,67201,40249,,,"5304 Heather Lane, Pocomoke City MD 21851",Worcester,CAFO,"HEATHER LANE FARM (#4,41,42,43)",,38.17107,-75.539734,39874,39874,108000,Chickens-not laying hens-dry,,,Registered,,40827,2009-CCD-0223,
,132687,40471,,,"3758 Poplar Neck Rd, Preston MD 21655",Caroline,CAFO,HENRY SPIES IV/TAKE-A-CHANCE,,38.714928,-75.94935,,40514,107000,Chickens-not laying hens-dry,,,Registered,,41075,2010-CCD-0439,
,66754,40346,,,"8225 Bowlend Rd, Pocomoke City MD 21851",Somerset,CAFO,HENRY TRAN/LOVE FARM,,38.106255,-75.57431,39874,39874,89000,Chickens-not laying hens-dry,,,Registered,,40935,2009-CCD-0221,
,67255,40925,,,"1502 Boston Rd, Pocomoke City MD 21851",Worcester,CAFO,HENRY TRAN/TWIN FARM,,38.049301,-75.505459,,39874,87000,Chickens-not laying hens-dry,,,Registered,,40983,2009-CCD-0514,
,67003,40259,,,"10477 Locust Point Rd, Princess Anne MD 21853",Somerset,CAFO,HERBERT C. VAN GINHOVEN INC,,38.168993,-75.789205,41247,40119,54400,Chickens-not laying hens-dry,,,Registered,,40564,2009-CCD-0034,
,67202,40250,,,"5603 Whitesburg Rd, Pocomoke City MD 21851",Worcester,CAFO,"HERITAGE BREEDERS, FARM #22",,38.162992,-75.538169,39874,39874,54000,Chickens-not laying hens-dry,,,Registered,,40855,2009-CCD-0222,
,67107,40315,,,"34000 Rounds Rd, Pittsville MD 21850",Wicomico,CAFO,HILAL-EL-BAF/HIND FARMS,,38.404318,-75.431311,39867,39867,131600,Chickens-not laying hens-dry,,,Registered,,40798,2009-CCD-0103,
,132766,40948,,,"5435 Cokesbury Rd, Rhodesdale MD 21659",Dorchester,CAFO,HILMAR HELGASON/HELGASON FARM,,38.593593,-75.776452,41360,40518,50000,Chickens-not laying hens-dry,,,Registered,,41414,2010-CCD-0442,
,134575,41696,,,"31093 Olde Fruitland Rd, Salisbury MD 21804",Wicomico,CAFO,HOA N. TRAN/FRUITLAND FARM (PROPOSED),,38.305217,-75.535697,,40708,112999,Chickens-not laying hens-dry,,,Registered,,40809,2011-CCD-0471,
,66772,41484,,,"7129 Gordy Rd, Pocomoke City MD 21851",Worcester,CAFO,HONEYSUCKLE FARM,,38.080037,-75.646953,,41199,108000,Chickens-not laying hens-dry,,,Registered,,41577,2009-CCD-0531,
,140589,41547,,,"7248 Old Westover Marion Rd, Westover MD 21838",Somerset,CAFO,"HORACE L. MARSHALL, JR./PINEAPPLE WILLIES",,38.079726,-75.711708,,41500,65000,Chickens-not laying hens-dry,,,Registered,,41677,2013-CCD-0661,
,22941,40280,,,"11471 Augustine Herman Hwy, Kennedyville MD 21645",Kent,CAFO,"HORIZON ORGANIC DAIRY, LLC",,39.290752,-76.009476,41260,39535,493,Dairy Cattle,,,Registered,,41354,2006-CDC-0083,
,67961,,,,"5549 Indiantown Rd, Rhodesdale MD 21659",Dorchester,MAFO,HOWARD HARDING AND BROOKVIEW FARMS,,38.56903,-75.7891,41744,39870,135800,Chickens-not laying hens-dry,,,Registered,,41838,2009-MCD-0506,
,67072,40911,,,"32171 Shavox Rd, Salisbury MD 21804",Wicomico,CAFO,HYUNG LYUL CHOI/CHIOCE & SEON FARMS,,38.360556,-75.497156,39867,39867,130000,Chickens-not laying hens-dry,,,Registered,,41058,2009-CCD-0104,
,89751,41026,,,"14335 Paradise Church Rd, Hagerstown MD 21742",Washington,MAFO,ISAAC E. MARTIN/ FARM,,39.708159,-77.694603,41338,41026,90,Dairy Cattle,,,Registered,,41520,2012-MDD-0618,
,89751,41026,,,"14335 Paradise Church Rd, Hagerstown MD 21742",Washington,MAFO,ISAAC E. MARTIN/ FARM,,39.708159,-77.694603,41338,41026,9500,Ducks - liquid manure,,,Registered,,41520,2012-MDD-0618,
,22200,41634,,,"605 Sassafras Rd, Warwick MD 21912",Cecil,CAFO,"ISE AMERICA, INC. - COMPANY 15 LAYERS",,39.399483,-75.801907,40962,40682,950847,Chickens-not laying hens-dry,,,Registered,,41799,2011-CLH-0468,
,134865,41634,,,"680 Wards Hill Road, Warwick MD 21912",Cecil,CAFO,"ISE AMERICA, INC.- COMPANY 15 PULLETS",,39.39391,-75.812084,40962,40736,249000,Laying hens - dry manure,,,Registered,,41800,2011-CLH-0475,
,22189,41634,,,"1526 Cecilton-Warwick Rd, Warwick MD 21913",Cecil,CAFO,"ISE AMERICA, INC.- COMPANY 6 LAYERS",,39.408433,-75.807085,40962,40736,787714,Laying hens - dry manure,,,Registered,,41799,2011-CLH-0476,
,134866,41634,,,"33235 Walnut Tree Rd, Millington MD 21651",Kent,CAFO,"ISE AMERICA, INC.- RED BIRD COMPANY 2 LAYERS",,39.285458,-75.80999,40962,40736,537696,Laying hens - dry manure,,,Registered,,41800,2011-CLH-0477,
,130331,41634,,,"33179 Walnut Tree Rd, Millington MD 21651",Kent,CAFO,"ISE AMERICA, INC.- RED BIRD COMPANY 2 PULLETS",,39.284134, -75.808828,40962,40682,253128,Laying hens - dry manure,,,Registered,,41800,2011-CLH-0685,
,66959,40403,,,"30268 Morgnec Rd, Millington MD 21651",Kent,CAFO,J. ANDREW CHANCE,,39.277627,-75.918541,39888,39875,47000,Chickens-not laying hens-dry,,,Registered,,40802,2009-CCD-0266,
,66831,40413,,,"6502 Federalsburg Hwy, Denton MD 21629",Caroline,CAFO,J. DONALD DULIN,,38.782918,-75.789784,39874,39874,60000,Chickens-not laying hens-dry,,,Registered,,40771,2009-CCD-0224,
,67842,40423,,,"5110 Stone Boundary Rd, Cambridge MD 21613",Dorchester,CAFO,J. VINSON SPIES/FOX RUN/ LITTLE BLACKWATER,,38.523553,-76.049735,,41710,168000,Chickens-not laying hens-dry,,,Registered,,41799,2014-CCD-0501,
,66818,39697,,,"19003 Templeville Rd, Marydel MD 21649",Caroline,CAFO,JACK E. HOLT/HOLT FARM,,39.127594,-75.773046,39871,39871,131000,Chickens-not laying hens-dry,,,Registered,,40694,2009-CCD-0069,
,66819,39697,,,"3024 Barclay Rd3211 Barclay Rd, Marydel MD 21649",Caroline,CAFO,JACK E. HOLT/RH 1 & RH 2 FARMS,,39.133916,-75.797934,,39871,311000,Chickens-not laying hens-dry,,,Registered,,40694,2009-CCD-0070,
,67881,40337,,,"13135 Hidden Acres Ln, Bishopville MD 21813",Worcester,CAFO,"JACOBS FARM, INC",,38.442596,-75.244278,,39876,60000,Chickens-not laying hens-dry,,,Registered,,41134,2009-CCD-0290,
,67032,40869,,,"32893 Reeses Landing Rd, Cordova MD 21625",Talbot,CAFO,"JADWINS FARM, LLC",,38.840077,-75.933547,39874,40760,112000,Chickens-not laying hens-dry,,,Registered,,40939,2011-CCD-0230,
,66640,40578,,,"28893 L Q Powell Rd, Marion MD 21838",Somerset,CAFO,"JAKOB WALTER, JR./FIVE J'S FARM",,38.013823,-75.753196,39881,39876,132200,Chickens-not laying hens-dry,,,Registered,,40905,2009-CCD-0291,
,66829,40392,,,"26738 Chipmans Lane, Federalsburg MD 21632",Caroline,CAFO,JAMES A. GARGANI,,38.75924,-75.780774,41162,39875,164000,Chickens-not laying hens-dry,,,Registered,,40564,2009-CCD-0030,
,67432,41512,,,"7614 Scotland Rd, Snow Hill MD 21863",Worcester,CAFO,JAMES A. KURTZ/KURTZ FARM,,38.177914,-75.30731,41512,39875,56000,Chickens-not laying hens-dry,,,Registered,,41820,2009-CCD-0268,
,131145,41019,,,"31421 Shavox Rd, Salisbury MD 21804",Wicomico,CAFO,JAMES BRUNK/BRUNKS BIRDS,,38.357879,-75.523016,40336,40336,203000,Chickens-not laying hens-dry,,,Registered,,41577,2010-CCD-0410,
,67150,40732,,,"5468 Archie Jones Rd, Willards MD 21874",Wicomico,CAFO,JAMES H. JONES/SOUTH 50 FARM,,38.34027,-75.360756,39871,39871,45000,Chickens-not laying hens-dry,,,Registered,,41484,2009-CCD-0182,
,67207,39869,,,"5634 Onley Rd, Girdletree MD 21829",Worcester,CAFO,JAMES J. SELBY/KEEPING THE FAITH FARM,,38.09388,-75.405743,39869,39869,128000,Chickens-not laying hens-dry,,,Registered,,40672,2009-CCD-0026,
,67138,40340,,,"200 Shady Farm Lane, Centreville MD 21617",Queen Anne's,CAFO,JAMES L. KELBAUGH,,39.098921,-76.080669,40968,39890,104800,Chickens-not laying hens-dry,,,Registered,,41087,2009-CCD-0348,
,132509,40456,,,"1108 Starr Rd, Centreville MD 21617",Queen Anne's,CAFO,JAMES MICHAEL CLOUGH JR. FARM,,38.983883,-76.020261,41815,40483,42000,Chickens-not laying hens-dry,,,Registered,,41900,2010-CCD-0433,
,129378,40303,,,"33918 Rounds Rd, Pittsville MD 21850",Wicomico,CAFO,JAMES O CANDY/ROUNDS ROAD FARM,,38.404526,-75.434462,,40127,61000,Chickens-not laying hens-dry,,,Registered,,40802,2009-CCD-0388,
,68004,40599,,,"32976 Dublin Rd, Princess Anne MD 21853",Somerset,CAFO,JAMES R. BRUMMITT/R & L FARM,,38.15694,-75.608291,39885,39871,105000,Chickens-not laying hens-dry,,,Registered,,41439,2009-CCD-0435,
,66740,41383,,,"3171 William Maddox Rd, Crisfield MD 21817",Somerset,CAFO,JAMES RANDY LAIRD,,37.971025,-75.828213,,41169,72000,Chickens-not laying hens-dry,,,Registered,,41577,2009-CCD-0552,
,67884,,,,"6990 Quantico Rd, Hebron MD 21830",Wicomico,CAFO,JAMES RYAN BURTON,,38.387222,-75.730247,,41961,155000,Chickens-not laying hens-dry,,,Registered,,41961,2009-CCD-0234,
,67023,40388,,,"31738 Geib Rd, Cordova MD 21625",Talbot,CAFO,JAMES S. HARRISON/HARRISON'S HAVEN,,38.853403,-75.959213,39885,39870,96000,Chickens-not laying hens-dry,,,Registered,,40798,2009-CCD-0082,
,130380,40374,,,"5926 Eldorado-Federalsburg Rd, Rhodesdale MD 21659",Dorchester,CAFO,JAMES W. PHILLIPS III/THIZ IZ IT FARM,,38.593935,-75.784817,40240,40240,60000,Chickens-not laying hens-dry,,,Registered,,40694,2009-CCD-0068,
,66862,39912,,,"5517 Hawkeye Rd, East New Market MD 21631",Dorchester,CAFO,"JAMES W. PHILLIPS, JR./PAIGES CHICKS, GLUCKHIEM FARM & NANA'S & TANNER'S NEST",,38.561429,-75.920135,41429,39912,147000,Chickens-not laying hens-dry,,,Registered,,41533,2009-CCD-0366,
,67986,40667,,,"6705 Elmo Dryden Rd, Westover MD 21871",Somerset,CAFO,JASON DRYDEN FARMS INC./POP POP ELMO FARM,,38.064424,-75.659201,39878,39878,180000,Chickens-not laying hens-dry,,,Registered,,40387,2009-CCD-0015,
,67209,40583,,,"2018 Boston Rd, Pocomoke City MD 21851",Worcester,CAFO,JASON LAMBERTSON/AMEN CORNER/MILLENNIUM/DIANE LAMBERTSON FARMS,,38.063111,-75.504133,39890,39890,179000,Chickens-not laying hens-dry,,,Registered,,41416,2009-CCD-0349,
,67136,40798,,,"720 Hall Rd, Sudlersville MD 21668",Queen Anne's,CAFO,JASON LARRY SHEUBROOKS/JACA FARM,,39.141286,-75.936107,40361,39871,71800,Chickens-not laying hens-dry,,,Registered,,41270,2009-CCD-0183,
,139686,41876,,,"710 Brick School House Rd, Centreville MD 216172535",Queen Anne's,CAFO,JAY A KINNAMON,,39.095349, -76.020687,41876,41452,85000,Chickens-not laying hens-dry,,,Registered,,41940,2013-CCD-0680,
,132222,41271,,,"5324 Rhodesdale Vienna Rd, Vienna MD 21869",Dorchester,MAFO,JB & BRAD MURPHY/BELLVIEW FARM (PROPOSED),,38.549279,-75.828812,40499,40449,252000,Chickens-not laying hens-dry,,,Registered,,40809,2010-MCD-0572,
,66982,41521,,,"6605 Old Westover Rd, Westover MD 21871",Somerset,CAFO,JEFF HOWARD/ROCKY ACRES,,38.062553,-75.701683,,41163,82000,Chickens-not laying hens-dry,,,Registered,,41754,2009-CCD-0012A,
,66703,40357,,,"5280 Whittington Rd, Marion MD 21838",Somerset,CAFO,JEFF TRUITT/BET-HARD FARM,,38.026733,-75.738173,,39876,65000,Chickens-not laying hens-dry,,,Registered,,41533,2009-CCD-0544,
,67431,40479,,,"4425 Blink Horn Rd, Hurlock MD 21643",Dorchester,MAFO,JEFFREY BLANNER/VIC'S CHIX,,38.656838,-75.885564,,39961,66000,Chickens-not laying hens-dry,,,Registered,,41614,2009-MCD-0562,
,66518,40966,,,"1136 Dudley Corners Rd, Millington MD 21651",Kent,CAFO,JENNIFER J. KUNES/CHICK-A-DEE-DOO-DAH,,39.211835,-75.90797,39885,39885,70000,Chickens-not laying hens-dry,,,Registered,,41131,2009-CCD-0342,
,130469,41631,,,"3680 Worcester Hwy, Snow Hill MD 21863",Worcester,CAFO,JERRY LAMBERTSON FARM,,38.139664, -75.423281,,41150,85000,Chickens-not laying hens-dry,,,Registered,,41740,2012-CCD-0502,
,67179,41631,,,"4735 Owl Hollow Lane, Pocomoke City MD 21851",Worcester,CAFO,JERRY LAMBERTSON/B & B FARM,,38.083419,-75.440801,,41150,77200,Chickens-not laying hens-dry,,,Registered,,41740,2009-CCD-0503,
,66934,40758,,,"6050 Dion Rd, Federalsburg MD 21632",Caroline,CAFO,"JESTER FARMS, LLC",,38.771455,-75.757722,40441,39875,152900,Chickens-not laying hens-dry,,,Registered,,40960,2009-CCD-0269,
,67880,40784,,,"32061 Melson Rd, Delmar MD 21875",Wicomico,CAFO,JIN KAHNG LEE/J.K. FARM,,38.441963,-75.500484,,39870,75000,Chickens-not laying hens-dry,,,Registered,,40977,2009-CCD-0148,
,67916,40897,,,"5813 Forest Grove Rd, Parsonsburg MD 21849",Wicomico,CAFO,JIN S. HEO/MATTHEW FARM,,38.351384,-75.466779,,39874,110000,Chickens-not laying hens-dry,,,Registered,,41005,2009-CCD-0229,
,130641,40868,,,"2535 Lakesville Crapo Rd, Crapo MD 21626",Dorchester,CAFO,JIN YONG KIM/JOON'S FARM,,38.320129,-76.119704,,40248,45000,Chickens-not laying hens-dry,,,Registered,,41075,2010-CCD-0401,
,66755,40753,,,"32552 West Post Office Rd, Princess Anne MD 21853",Somerset,CAFO,"JO AND E ENTERPRISES, INC./MAGNOLIA MEADOWS",,38.222447,-75.585586,39885,39885,173000,Chickens-not laying hens-dry,,,Registered,,41726,2009-CCD-0343,
,66968,40198,,,"6546 Eldorado Rd, Federalsburg MD 21632",Caroline,CAFO,JOHN & ALISON TAYLOR/BRADLEY'S MEADOW,,38.648732,-75.768297,39874,39874,54400,Chickens-not laying hens-dry,,,Registered,,40564,2009-CCD-0035,
,66542,40540,,,"184 Stowman Farm Lane, Queen Anne MD 21617",Queen Anne's,CAFO,JOHN CANNON/STOWMAN FARM,,39.087619,-76.056327,39897,39876,129000,Chickens-not laying hens-dry,,,Registered,,40694,2009-CCD-0067,
,133256,,,,"6028 Lone Pine Rd, Rhodesdale MD 21659",Dorchester,COC,JOHN KEVIN BRADLEY/JAMES PAYNE FARM,,38.604319,-75.740018,,41183,,,,,Certification of Conformance (See AFO Webpage),,,2012-AFO-0574,41183
,66955,41239,,,"11711 Duddley Chance Rd, Galena MD 21635",Kent,CAFO,JOHN LOUIS CHANCE & B & L FARM,,39.299687,-75.864579,39870,39870,57000,Chickens-not laying hens-dry,,,Registered,,41362,2009-CCD-0139,
,66967,41642,,,"4825 Maple Dam Rd, Cambridge MD 21613",Dorchester,CAFO,JOHN LUTHY/BIG PECKERS/RED ROOST,,38.508581,-76.082417,41793,41796,240000,Chickens-not laying hens-dry,,,Registered,,41838,2014-CCD-0504,
,67220,40259,,,"1826 Colona Rd, Pocomoke City MD 21851",Worcester,CAFO,JOHN P. KELLY/PEBBLE BRANCH/OFF OX/WAGRAMS FARMS,,38.004538,-75.570283,,39892,242000,Chickens-not laying hens-dry,,,Registered,,40564,2009-CCD-0036,
,66541,39905,,,"201Carville Lane, Centreville MD 21617",Queen Anne's,CAFO,JOHN SCOTT DULIN/S&K FARM,,39.041495,-76.001433,41492,39868,120000,Chickens-not laying hens-dry,,,Registered,,41565,2009-CCD-0116,
,68145,41297,,,"28938 River Rd, Millington MD 21651",Kent,CAFO,JONAS STOLTZFUS- WINDHILL FARM,,39.260096,-75.962882,,39968,135000,Chickens-not laying hens-dry,,,Registered,,41423,2009-CCD-0371,
,67095,40445,,,"34756 Casher Wells Rd, Pittsville MD 21850",Wicomico,CAFO,JONG KIL WON/HALLELUJAH FARM,,38.405311,-75.405704,39882,39869,120000,Chickens-not laying hens-dry,,,Registered,,40830,2009-CCD-0124,
,67182,41313,,,"4753 Big Mill Rd, Stockton MD 21864",Worcester,CAFO,JOSEPH E. CHISHOLM JR./BIG MILL POND FARM,,38.020328,-75.455061,,41313,65400,Chickens-not laying hens-dry,,,Registered,,41409,2013-CCD-0547,
,67134,40443,,,"5704 Massey Crossing Rd, Willards MD 21874",Wicomico,CAFO,JUNG RAK PARK/PARK'S FARM,,38.346446,-75.336138,39869,39869,74000,Chickens-not laying hens-dry,,,Registered,,40812,2009-CCD-0125,
,67046,40758,,,"34767 Tingle Rd, Pittsville MD 21850",Wicomico,CAFO,KAREN WHITE BAILEY/FRANK BAILEY FARM,,38.432958,-75.404538,39874,39874,49000,Chickens-not laying hens-dry,,,Registered,,40827,2009-CCD-0232,
,67792,41568,,,"35318 Wango Rd, Pittsville MD 21850",Wicomico,CAFO,KATHRYN M. LE FARM,,38.323372,-75.390915,,41568,183000,Chickens-not laying hens-dry,,,Registered,,41632,2013-CCD-0184,
,141866,41911,,,"10131 Arden Station Rd, Princess Anne MD 21853",Somerset,CAFO,KATHY A. GREEN/FULTON ACRES FARM,,38.159172,-75.665758,,41578,79800,Chickens-not laying hens-dry,,,Registered,,41960,2013-CCD-0674,
,67890,41277,,,"8276 Ironshire Rd, Berlin MD 21811",Worcester,CAFO,KEITH LITTLETON/K & M FARM,,38.31575,-75.295509,,39925,72000,Chickens-not laying hens-dry,,,Registered,,41711,2009-CCD-0561,
,66743,40647,,,"29326 Revells Neck Rd, Westover MD 21871",Somerset,CAFO,"KEN BLEVINS FARM, INC",,38.14956,-75.737151,39875,39875,136000,Chickens-not laying hens-dry,,,Registered,,41166,2009-CCD-0270,
,67960,40865,,,"8161 Libertytown Rd, Berlin MD 21811",Worcester,CAFO,KEN LITTLETON JR./PLUM CRAZY/ GONE NUTS/ DINKY PLACE,,38.32703,-75.293916,39990,39882,265000,Chickens-not laying hens-dry,,,Registered,,41131,2009-CCD-0555,
,67892,41347,,,"5756 American Corner Rd, Federalsburg MD 21632",Caroline,CAFO,KENNETH FISHELL JR.,,38.765511,-75.820636,41347,41347,55000,Chickens-not laying hens-dry,,,Registered,,41851,2013-CCD-0553,
,130043,41619,,,"26100 Auction Rd, Federalsburg MD 21632",Caroline,CAFO,KENNETH H. FISHELL SR.,,38.75671,-75.798428,,41289,60000,Chickens-not laying hens-dry,,,Registered,,41851,2010-CCD-0566,
,66833,40038,,,"25999 Auction Rd, Federalsburg MD 21632",Caroline,CAFO,KEVIN RUSSELL FISHELL/K-RUSS FARM,,38.759073,-75.80501,41772,40192,64000,Chickens-not laying hens-dry,,,Registered,,41820,2009-CCD-0515,
,99542,41681,,,"8855 Ironshire Station Rd, Berlin MD 21811",Worcester,CAFO,KIJAE KIM / KIM FARM (NEW CONSTRUCTION),,38.299344, -75.263214,,41527,106000,Chickens-not laying hens-dry,,,Registered,,41750,2013-CCD-0667,
,23560,40354,,,"795 Fire Tower Rd, Colora MD 21917",Cecil,CAFO,"KILBYS, INC.",,39.659004,-76.085731,,40354,600,Dairy Cattle,,,Registered,,41554,2010-CDC-0413,
,133508,41527,,,"11045 Harry Riggin Rd, Princess Anne MD 21853",Somerset,CAFO,KIMBERLY G. HORST/GREENWOOD ACRES FARM,,38.183029,-75.553533,,41408,96300,Chickens-not laying hens-dry,,,Registered,,41634,2013-CCD-0462,
,67228,40574,,,"2638 Payne Rd, Pocomoke City MD 21851",Worcester,CAFO,KIMBERLY PRUITT/PRUITT FARM,,38.015508,-75.532075,39861,39861,118400,Chickens-not laying hens-dry,,,Registered,,40882,2009-CCD-0087,
,139265,41698,,,"32221 Perryhawkin Rd, Princess Anne MD 21853",Somerset,CAFO,KINGSWOOD FARM INC./KATHCARR FARM,,38.186292, -75.640911,41015,41186,54000,Chickens-not laying hens-dry,,,Registered,,41942,2012-CCD-0688,
,66773,41698,,,"33091 Perryhawkin Rd, Princess Anne MD 21853",Somerset,CAFO,KINGSWOOD FARM INC./MIKE KING FARM,,38.175545,-75.599703,41015,41186,48000,Chickens-not laying hens-dry,,,Registered,,41942,2012-CCD-0532,
,67189,40739,,,"6083 Snow Hill Rd, Snow Hill MD 21863",Worcester,CAFO,KIRK CARMEAN FARM,,38.205117,-75.435731,39869,39869,76000,Chickens-not laying hens-dry,,,Registered,,41249,2009-CCD-0126,
,68151,40653,,,"8239 Newark Rd, Newark MD 21841",Worcester,CAFO,KUNWOO LEE FARM,,38.24821,-75.298538,,39874,107300,Chickens-not laying hens-dry,,,Registered,,41844,2009-CCD-0233,
,66949,41631,,,"4969 Howard Rd, Federalsburg MD 21632",Caroline,CAFO,"KWW, LLC/GARFIELD R. WATSON/JACK RABBIT",,38.743367,-75.797666,,41408,92000,Chickens-not laying hens-dry,,,Registered,,41590,2013-CCD-0047,
,99372,41330,,,"27618 Substation Rd, Denton MD 21629",Caroline,CAFO,LANCE E. BROWN / LANCE BROWN FARM,,38.844528,-75.741198,,41289,126000,Chickens-not laying hens-dry,,,Registered,,41439,2013-CCD-0645,
,67927,41648,,,"31831 Peggy Neck Rd, Eden MD 21822",Somerset,CAFO,LARRY JOHNSTON/MILLPOINT FARM,,38.254957,-75.64878,40451,39870,257000,Chickens-not laying hens-dry,,,Registered,,41844,2009-CCD-0155,
,130810,40792,,,"3990 Laurel Grove Road, Federalsburg MD 21632",Caroline,CAFO,LARRY NAGEL FARM,,38.715817,-75.806562,40273,40273,41000,Chickens-not laying hens-dry,,,Registered,,40907,2010-CCD-0404,
,68668,41754,,,"2622 Bunting Rd, Pocomoke City MD 21851",Worcester,CAFO,"LARRY STERLING/BUNTING FARM, BIG BOY FARM, LARRY STERLING FARM, POPS FARM",,38.010283,-75.535873,39864,39864,340000,Chickens-not laying hens-dry,,,Registered,,40672,2009-CCD-0019,
,68728,40578,,,"35094 Wango Rd, Pittsville MD 21850",Wicomico,CAFO,LAWRENCE A. LEMBECK/FAWN FARM,,38.317294,-75.396484,40059,40059,77000,Chickens-not laying hens-dry,,,Registered,,40905,2009-CCD-0377,
,67001,41645,,,"32071 Mitchell Rd, Princess Anne MD 21853",Somerset,CAFO,LAWRENCE C THOMAS INC,,38.154498, -75.638347,39876,40381,41600,Chickens-not laying hens-dry,,,Registered,,41851,2009-CCD-0417,
,66842,40441,,,"28268 Bridgeville Rd, Federalsburg MD 21632",Caroline,CAFO,LAWRENCE JOHNSON,,38.70538,-75.727426,41711,39891,50000,Chickens-not laying hens-dry,,,Registered,,41218,2009-CCD-0346,
,67055,39898,,,"35579 Poplar Neck Rd, Willards MD 21874",Wicomico,CAFO,LEE RICHARDSON/BLIZZARD & RAILROAD FARM,,38.39981,-75.378213,41025,39875,179600,Chickens-not laying hens-dry,,,Registered,,41520,2009-CCD-0272,
,132767,41383,,,"28155 Comegys Rd, Kennedyville MD 21645",Kent,CAFO,LELAND R. TROYER,,39.287619,-75.995884,41039,40515,60000,Chickens-not laying hens-dry,,,Registered,,41442,2010-CCD-0440,
,66752,41183,,,"5970 Landon Store Rd, Marion MD 21838",Somerset,CAFO,LEONARD HOWARD,,38.046279,-75.74333,,39869,42800,Chickens-not laying hens-dry,,,Registered,,41632,2009-CCD-0488,
,23562,40196,,,"12667 Massey Rd, Massey MD 21650",Kent,CAFO,"LESTER C. JONES & SONS, INC.",,39.320637,-75.808707,40597,40196,2600,Dairy Cattle,,,Registered,,40771,2010-CDC-0397,
,134832,41592,,,"23156 Royal Oak Rd, Quantico MD 21856",Wicomico,CAFO,LEWRENZA BYRD/ROYAL OAK FARM,,38.354513,-75.812028,40732,40732,44400,Chickens-not laying hens-dry,,,Registered,,41936,2011-CCD-0474,
,67935,41731,,,"32310 Dublin Rd, Princess Anne MD 21853",Somerset,CAFO,LINH TRAN FARM,,38.162319,-75.635255,,41408,299800,Chickens-not laying hens-dry,,,Registered,,41820,2013-CCD-0681,
,66832,40413,,,"4042 Smithville Rd, Federalsburg MD 21632",Caroline,CAFO,"LLOYD A. GAUGLER, INC.",,38.71874,-75.773065,41207,39875,50000,Chickens-not laying hens-dry,,,Registered,,40658,2009-CCD-0273,
,37289,41710,,,"11069 Knife Box Rd, Denton MD 21629",Caroline,CAFO,LOHMEYER GREENHOUSES LLC (NEW CONSTRUCTION),,38.91392,-75.742676,,41515,35400,Chickens-not laying hens-dry,,,Registered,,41820,2013-CCD-0666,
,66834,40501,,,"11169 Knife Box Rd, Denton MD 21629",Caroline,CAFO,LOHMEYER'S FARM INC,,38.914183,-75.743906,41143,39869,49400,Chickens-not laying hens-dry,,,Registered,,40746,2009-CCD-0080,
,67114,41599,,,"32579 Longridge Rd, Parsonsburg MD 21849",Wicomico,CAFO,"LONGRIDGE FARM, LLC",,38.36638,-75.483473,39874,39874,50000,Chickens-not laying hens-dry,,,Registered,,41166,2009-CCD-0235,
,67148,40704,,,"5825 Cokesbury Rd, Galestown MD 21659",Dorchester,CAFO,LOYAL PURPOSE FARMS,,38.60554,-75.733861,41005,39883,43400,Chickens-not laying hens-dry,,,Registered,,41127,2009-MCD-0335,
,67118,41807,,,"34802 Mt. Hermon Rd, Pittsville MD 21850",Wicomico,CAFO,M T MARSHALL FARM,,38.164971,-75.718648,39870,39870,120000,Chickens-not laying hens-dry,,,Registered,,40905,2009-CCD-0171,
,67244,,,,"10460 Stewart Neck Rd, Princess Anne MD 21853",Somerset,COC,M. RAWLINGS NELSON JR. INC./BUNKY NELSON FARM,,38.173986, -75.724798,41736,41185,,,,,Certification of Conformance (See AFO Webpage),,,2012-AFO-0512,41185
,68588,41502,,,"10373 Stewart Neck Rd, Princess Anne MD 21853",Somerset,CAFO,M. RAWLINGS NELSON JR. INC./RAWLINGS NELSON FARM,,38.331849,-75.406988,41502,41325,53000,Chickens-not laying hens-dry,,,Registered,,41697,2013-CCD-0517,
,67226,41754,,,"2700 Klej Grange Rd, Pocomoke City MD 21851",Worcester,CAFO,MAHE FARM/MOHAMMAD NASIR,,38.094807,-75.459562,,41753,217000,Chickens-not laying hens-dry,,,Registered,,41761,2009-CCD-0062,
,66790,40792,,,"5890 Harmony Rd, Preston MD 21655",Caroline,CAFO,MAJID AROOM/CASPIAN AND WYNNE FARMS,,38.769001,-75.882014,41619,39870,106800,Chickens-not laying hens-dry,,,Registered,,40899,2009-CCD-0149,
,66528,40431,,,"7404 Sudlersville Rd, Sudlersville MD 21668",Queen Anne's,CAFO,"MAR DEL VIEW FARMS, LLC",,39.196379,-75.757555,41247,39870,43400,Chickens-not laying hens-dry,,,Registered,,40802,2009-CCD-0150,
,67185,40402,,,"7420 McCabes Corner Rd, Snow Hill MD 21863",Worcester,CAFO,MARBURY W. PERDUE III/BORROWED FROM GOD,,38.143274,-75.327625,41473,39870,146000,Chickens-not laying hens-dry,,,Registered,,41523,2009-CCD-0151,
,66522,41108,,,"326 Charles I Boyle Rd, Queen Anne MD 21657",Queen Anne's,CAFO,MARGARET G. BOYLE/HEMSLEY PARK AND PB & J FARMS,,38.94674,-76.016267,39874,41109,134000,Chickens-not laying hens-dry,,,Registered,,41614,2009-CCD-0205,
,129695,40339,,,"9405 Rum Ridge Rd, Delmar MD 21875",Wicomico,CAFO,MARGARET WHEELER FARM,,38.449972,-75.511298,40155,40155,40000,Chickens-not laying hens-dry,,,Registered,,40695,2009-CCD-0072,
,131172,40672,,,"36554 Purnell Crossing Rd, Willards MD 21874",Wicomico,CAFO,"MARGO'S FAMILY FARM, LLC",,38.333582,-75.347412,,40343,41800,Chickens-not laying hens-dry,,,Registered,,41533,2010-CCD-0411,
,67215,40653,,,"5986 Snow Hill Rd, Snow Hill MD 21863",Worcester,CAFO,"MAR-HOLLOW FARMS, INC",,38.205278,-75.435588,41065,39877,110000,Chickens-not laying hens-dry,,,Registered,,41794,2009-CCD-0311,
,66687,41121,,,"12300 Palmetto Church Rd, Princess Anne MD 21853",Somerset,CAFO,MARIA TRAN,,38.214512,-75.649492,,41096,170000,Chickens-not laying hens-dry,,,Registered,,41173,2012-CCD-0322,
,67162,40358,,,"6026 Cokesbury Rd, Rhodesdale MD 21659",Dorchester,CAFO,MARIO M. ROSALES/RBG 1 FARM,,38.624099,-75.724573,40840,39877,65000,Chickens-not laying hens-dry,,,Registered,,40764,2009-CCD-0312,
,133820,40771,,,"851 Bridgetown Rd, Henderson MD 21640",Caroline,CAFO,MARK ECK/DAD'S FARM,,39.056315,-75.888758,40312,40312,70000,Chickens-not laying hens-dry,,,Registered,,41040,2010-CCD-0408,
,130943,40771,,,"450 Ell Morris Rd, Henderson MD 21640",Caroline,CAFO,MARK ECK/ECK FARM,,39.083391,-75.853243,40312,40312,108000,Chickens-not laying hens-dry,,,Registered,,41040,2010-CCD-0409,
,66695,40624,,,"1924 New Bridge Rd, Pocomoke City MD 21851",Worcester,CAFO,MARK HOLLAND/HOME & SHAY FARMS,,38.01706,-75.565873,40448,40189,122000,Chickens-not laying hens-dry,,,Registered,,41089,2010-CCD-0393,
,66848,40612,,,"6351 Jones Corner Rd, Denton MD 21629",Caroline,CAFO,MARK MONATH/MARK & BRENDA MONATH,,38.781207,-75.810934,41086,39870,167400,Chickens-not laying hens-dry,,,Registered,,41439,2009-CCD-0152,
,67028,39882,,,"11089 Kitty's Corner's Rd, Cordova MD 21625",Talbot,CAFO,MARK R SUMP FARM,,38.452293,-75.48731,39882,39882,90000,Chickens-not laying hens-dry,,,Registered,,40445,2009-CCD-0020,
,67944,41221,,,"32403 East Line Rd, Delmar MD 21875",Wicomico,CAFO,MARK R. SHOCKLEY/PEPPER BOX FARM,,38.855571,-75.985239,41221,39876,58000,Chickens-not laying hens-dry,,,Registered,,41666,2009-CCD-0293,
,67197,40904,,,"10821 St. Matin Neck Rd, Bishopville MD 21813",Worcester,CAFO,MARK S DREW/ MITCHELL A DREW,,38.92118,-75.89962,39911,39869,93000,Chickens-not laying hens-dry,,,Registered,,41166,2009-CCD-0127,
,66789,41001,,,"23204 Shore Hwy, Denton MD 21629",Caroline,CAFO,MARK S. CALLAHAN,,38.438716,-75.184345,41431,39878,68000,Chickens-not laying hens-dry,,,Registered,,41697,2009-CCD-0320,
,67188,41354,,,"10788 Three Bridge Branch Rd, Cordova MD 21625",Talbot,CAFO,MARK SUMP/POPULAR LEVEL FARM,,38.845359,-76.013558,,41523,56000,Chickens-not laying hens-dry,,,Registered,,41558,2009-CCD-0078,
,66795,41765,,,"4288 Laurel Grove Rd, Federalsburg MD 21632",Caroline,CAFO,MARTIN CHEESMAN,,38.724534,-75.811874,,41185,47000,Chickens-not laying hens-dry,,,Registered,,41872,2012-CCD-0516,
,66844,39877,,,"13256 Kibler Rd, Greensboro MD 21639",Caroline,CAFO,"MARTIN E. COLLISON, JR./ MARZEL FARM",,38.972153,-75.770786,39877,39877,168000,Chickens-not laying hens-dry,,,Registered,,41414,2009-CCD-0313,
,132850,40511,,,"33210 Perryhawkin Rd, Princess Anne MD 21853",Somerset,CAFO,MARTIN VITELLI/KNEW FARM,,38.175526,-75.599794,,40528,175000,Chickens-not laying hens-dry,,,Registered,,41138,2010-CCD-0444,
,68730,40584,,,"8911 Marshall Creek Rd, Newark MD 21841",Worcester,CAFO,MARVIN STEPHENS/STEPHENS AND C & J FARM,,38.243976,-75.26971,,39874,115000,Chickens-not laying hens-dry,,,Registered,,41549,2009-CCD-0236,
,130957,40987,,,"309 Cosden Rd, Barclay MD 21607",Queen Anne's,MAFO,MARY JO MOTIER,,39.154364,-75.877811,,40310,49000,Chickens-not laying hens-dry,,,Registered,,41214,2010-MCD-0567,
,23566,41141,,,"Bullfrog Rd @ Mason Dixon Rd, Emmitsburg MD 21727",Frederick,CAFO,"MASON DIXON FARMS, INC",,39.721464,-77.259911,41694,40399,2643,Dairy Cattle,,,Registered,,41302,2010-CDC-0418,
,67212,41915,,,"8004 Old Ocean City Rd, Whaleyville MD 21872",Worcester,CAFO,MATT LAYFIELD / DENNIS FARM,,38.391406,-75.297565,41915,39870,38300,Chickens-not laying hens-dry,,,Registered,,41960,2009-CCD-0153,
,32240,39980,,,"3901-B Hawks Hill Rd, New Windsor MD 21776",Carroll,CAFO,MATTHEW HOFF/COLDSPRINGS FARMS,,39.534433,-77.135751,39980,39308,1850,Dairy Cattle,,,Registered,,40478,2009-CCD-0028,
,131410,41479,,,"5585 Nagel Road, Federalsburg MD 21632",Caroline,CAFO,MATTHEW PAUL MANSHIP/FOG HORN LEG HORN FARM,,38.760972,-75.854316,,41355,67200,Chickens-not laying hens-dry,,,Registered,,41547,2013-CCD-0414,
,66991,40589,,,"6402 George Riggin Rd, Westover MD 21871",Somerset,CAFO,MAX STUCKEY FARM,,38.057186,-75.678822,,39869,82000,Chickens-not laying hens-dry,,,Registered,,41416,2009-CCD-0655,
,103351,41885,,,"5679 Powellville Rd, Willards MD 21850",Wicomico,CAFO,MICHAEL C. ZIDANIC/ZIDANIC FARM,,38.345997,-75.365365,,41380,53800,Chickens-not laying hens-dry,,,Registered,,41943,2013-CCD-0652,
,66933,40436,,,"26365 Line Rd, Denton MD 21629",Caroline,CAFO,MICHAEL REUWER/REUWER'S ROOST/EMPTY POCKETS,,38.820238,-75.793045,39888,39888,86000,Chickens-not laying hens-dry,,,Registered,,39888,2009-CCD-0347,
,67116,41813,,,"8355 Ironshire Station Rd, Berlin MD 21811",Worcester,CAFO,MICHELLE LITTLETON/KOBY'S ACRES,,38.309459,-75.282511,41379,41379,89000,Chickens-not laying hens-dry,,,Registered,,41936,2013-CCD-0102,
,67141,40276,,,"8128 Green Lewis Rd, Willards MD 21874",Wicomico,CAFO,MICHELLE PROTANI-CHESNIK/PURGATORY FARM,,38.412623,-75.333033,39867,39867,82000,Chickens-not laying hens-dry,,,Registered,,40588,2009-CCD-0041,
,67196,40954,,,"6679 Worchester Hwy, Newark MD 21841",Worcester,CAFO,MIKE & NANCY DONOWAY FARM,,38.236634,-75.316389,39899,39874,59400,Chickens-not laying hens-dry,,,Registered,,41543,2009-CCD-0239,
,67135,40388,,,"30688 Zion Rd, Salisbury MD 21804",Wicomico,CAFO,MILDRED M. PARKER/WESLEY PARKER FARM,,38.39868,-75.548401,39869,39869,50000,Chickens-not laying hens-dry,,,Registered,,40815,2009-CCD-0128,
,67826,40521,,,"11207 St. Martins Neck Rd, Bishopville MD 21813",Worcester,CAFO,MILTON LEE WEST,,38.42619,-75.170607,39882,39882,73000,Chickens-not laying hens-dry,,,Registered,,41634,2009-CCD-0327,
,67904,40568,,,"10955 Saint Martins Neck Rd, Bishopville MD 21813",Worcester,CAFO,MILTON LEE WEST JR./MILTON LEE WEST FARM,,38.423138,-75.157908,40450,39881,240000,Chickens-not laying hens-dry,,,Registered,,41485,2009-CCD-0323,
,66666,40270,,,"3647 Payne Rd, Pocomoke City MD 21851",Worcester,CAFO,MIN DO/CHANCE AND CRITCHER AND SKYLAR FARM,,38.008097,-75.496588,39875,39875,158000,Chickens-not laying hens-dry,,,Registered,,40623,2009-CCD-0049,
,66770,39869,,,"1635 Cedar Hall Rd, Pocomoke City MD 21851",Worcester,CAFO,"MINH V. MA/ THE GOOD, THE BAD, THE UGLY",,38.089217,-75.517043,41463,39909,250000,Chickens-not laying hens-dry,,,Registered,,41520,2009-CCD-0361,
,130889,39869,,,"2310 Worcester Hwy, Pocomoke City MD 21851",Worcester,CAFO,MINH V. MA/GREEN FARM,,38.071074,-75.518925,41456,39909,96000,Chickens-not laying hens-dry,,,Registered,,41520,2009-CCD-0359,
,66636,40591,,,"3206 Byrd Rd, Pocomoke City MD 21851",Worcester,CAFO,MINH V. MA/MEATBALL FARM,,38.053402,-75.580952,39869,39909,42000,Chickens-not laying hens-dry,,,Registered,,40983,2009-CCD-0360,
,67248,39552,,,"1905 Five Bridges Rd, Snow Hill MD 21863",Worcester,CAFO,MINH VINH/TEN HOUSE FARM,,38.188779,-75.551911,39864,39864,430000,Chickens-not laying hens-dry,,,Registered,,40387,2009-CCD-0013,
,67094,40634,,,"35345 E. Line Rd, Willards MD 21874",Wicomico,CAFO,MOHAMMAD ARSHAD/CH. FATEH & J. KASANA FARM,,38.451191,-75.384193,39925,39925,145800,Chickens-not laying hens-dry,,,Registered,,41089,2009-CCD-0368,
,130030,40308,,,"4629 Nassawango Rd, Snow Hill MD 21863",Worcester,CAFO,MOHAMMAD IQBAL/PINEWOOD RANCH,,38.164931,-75.443966,41512,40021,45800,Chickens-not laying hens-dry,,,Registered,,41498,2009-CCD-0375,
,66965,41915,,,"26955 Fitzgerald Rd, Princess Anne MD 21853",Somerset,CAFO,MONIE BAY FARMS INCORPORATED,,38.189101,-75.819536,,41183,73000,Chickens-not laying hens-dry,,,Registered,,41957,2012-CCD-0489,
,137050,40966,,,"5625 Mt. Hermon Church Rd, Salisbury MD 21804",Wicomico,CAFO,MOON SUB LEE/SALISBURY FARM,,38.34435,-75.536564,,40976,52000,Chickens-not laying hens-dry,,,Registered,,41086,2012-CCD-0608,
,67168,40521,,,"8040 Dividing Creek Rd, Pocomoke MD 21851",Worcester,CAFO,MUOI TRAN/THAN HUU FARM,,38.101266,-75.559,39882,39882,164000,Chickens-not laying hens-dry,,,Registered,,41577,2009-CCD-0328,
,129987,,,,"5626 Lone Pine Rd, Rhodesdale MD 21659",Dorchester,MAFO,"MURPHY'S CRUSTING & UNILOADER SERVICE, INC./DOUBLE TROUBLE",,38.576696,-75.775831,41744,40170,176000,Chickens-not laying hens-dry,,,Registered,,41942,2009-MCD-0564,
,118853,,,,"5624 Eldorado Sharptown Rd, Rhodesdale MD 21659",Dorchester,MAFO,"MURPHY'S CRUSTING, INC./ROBERT'S FARM",,38.573167,-75.753674,41558,41558,172000,Chickens-not laying hens-dry,,,Registered,,41810,2013-MCD-0673,
,137643,40463,,,"26315 Porter Mill Rd, Hebron MD 21830",Wicomico,CAFO,MURRAY FARMS INC/PORTER MILL FARM,,38.43107,-75.699082,39863,39863,54400,Chickens-not laying hens-dry,,,Registered,,40812,2009-CCD-0478,
,67817,40463,,,"4700 Dividing Rd4782 Dividing Rd, Salisbury MD 21801",Wicomico,CAFO,"MURRAY FARMS, INC./DIVIDING ROAD & KELRIN FARMS",,38.32316,-75.664777,39863,39863,195900,Chickens-not laying hens-dry,,,Registered,,41178,2009-CCD-0098,
,133052,40563,,,"33669 Dublin Rd, Princess Anne MD 21853",Somerset,CAFO,MY N. TRAN/MAXINE RUBIN FARM,,38.15131,-75.583655,,40556,220000,Chickens-not laying hens-dry,,,Registered,,40905,2011-CCD-0451,
,66971,41382,,,"31944 West Post Office Rd, Princess Anne MD 21853",Somerset,CAFO,MYONG JA SO/NEW WORLD & ADEN FARM,,38.217974,-75.64485,,39867,220000,Chickens-not laying hens-dry,,,Registered,,41484,2009-CCD-0108,
,67958,41856,,,"24425 Pinetown Rd, Preston MD 21655",Caroline,CAFO,"NADEEM ASHRAF/ EASTON FARM, LLC",,38.796778,-75.858467,,41731,80000,Chickens-not laying hens-dry,,,Registered,,41936,2014-CCD-0001,
,67895,41411,,,"810 Brick Schoolhouse Rd, Centreville MD 21617",Queen Anne's,CAFO,"NATIVE ENTERPRISES, LLC",,39.096529,-76.025307,,41389,66000,Chickens-not laying hens-dry,,,Registered,,41411,2009-CCD-0192,
,66969,40540,,,"7208 Mennonite Church Rd, Westover MD 21871",Somerset,CAFO,NELLIE OVERHOLT,,38.077538,-75.658677,,41233,75000,Chickens-not laying hens-dry,,,Registered,,41381,2009-CCD-0486,
,67936,40228,,,"8440 Courthouse Hill Rd, Pocomoke City MD 21851",Somerset,CAFO,NEWTON BUI/VINA CAO FARM,,38.110891,-75.562521,39870,39870,85000,Chickens-not laying hens-dry,,,Registered,,40983,2009-CCD-0156,
,68123,40567,,,"12425 Tingle Lane, Bishopville MD 21813",Worcester,CAFO,"NGUYEN FARMS, INC",,38.423804,-75.157712,,39870,145000,Chickens-not laying hens-dry,,,Registered,,40973,2009-CCD-0157,
,66850,39260,,,"14545 Oakland Rd, Ridgely MD 21660",Caroline,CAFO,OAKLAND VIEW FARMS LLC,,38.997417,-75.870888,41081,39260,620,Dairy Cattle,,,Registered,,41184,2007-CCD-0321,
,67862,41921,,,"33046 Ed Boston Rd, Princess Anne MD 21853",Somerset,CAFO,OSCAR T. RENTSCHLER/BLACK LAB ACRES,,38.192134, -75.605763,,41696,142000,Chickens-not laying hens-dry,,,Registered,,41933,2009-CCD-0106,
,67037,40602,,,"6811 Cherry Walk Rd, Hebron MD 21830",Wicomico,CAFO,PARVAR INC./ALLAN BANK FARM,,38.386156,-75.789559,39874,39874,90000,Chickens-not laying hens-dry,,,Registered,,41439,2009-CCD-0242,
,67939,40248,,,"13831 Allen Rd, Princess Anne MD 21853",Somerset,CAFO,PAT LAYFIELD FARM,,38.260853,-75.680343,40695,39869,40000,Chickens-not laying hens-dry,,,Registered,,40939,2009-CCD-0129,
,93333,41542,,,"115 Patterson Dairy Lane, Chestertown MD 21620",Kent,CAFO,"PATTERSON FARMS, INC/HOME FARM",,39.225293,-75.96645,41414,41086,561,Dairy Cattle,,,Registered,,41820,2012-CDC-0669,
,66864,40067,,,"26846 Baker Rd, Denton MD 21629",Caroline,CAFO,PAUL & MARY JO TOWERS & BADNEWS,,38.909058,-75.772616,41278,39870,103000,Chickens-not laying hens-dry,,,Registered,,40672,2009-CCD-0021,
,108776,41535,,,"9601 Chapel Rd, Easton MD 21601",Talbot,CAFO,PAUL AARON HUTCHISON SR./HOME FARM,,38.810605,-76.025724,,41498,98000,Chickens-not laying hens-dry,,,Registered,,41634,2013-CCD-0664,
,67089,40276,,,"8210 New Hope Rd, Willards MD 21874",Wicomico,CAFO,PAUL D. CHESNIK/ELYSIAN FIELDS,,38.408059,-75.328146,39867,39867,46600,Chickens-not laying hens-dry,,,Registered,,40588,2009-CCD-0040,
,132683,40463,,,"34288 Wango Rd, Parsonsburg MD 21849",Wicomico,CAFO,"PENIAL FARM, LLC",,38.319261,-75.423396,,40513,58000,Chickens-not laying hens-dry,,,Registered,,40911,2010-CCD-0438,
,66756,40008,,,"12308 Palmetto Church Rd, Princess Anne MD 21853",Somerset,CAFO,"PETER AND JOSEPH FARM, INC./MARIA & JOSEPH FARM",,38.218406,-75.649526,39878,39878,240000,Chickens-not laying hens-dry,,,Registered,,40387,2009-CCD-0011,
,67011,40360,,,"33182 Matthewstown Rd, Easton MD 21601",Talbot,CAFO,PHILLIP ORRELL/ADVANTAGE FARM,,38.825462,-75.919828,39897,39870,42200,Chickens-not laying hens-dry,,,Registered,,40983,2009-CCD-0158,
,66882,40911,,,"27700 Possum Hill Rd, Federalsburg MD 21632",Caroline,CAFO,"POSSUM HILL FARMS, INC.",,38.777749,-75.744034,41380,39870,165000,Chickens-not laying hens-dry,,,Registered,,41439,2009-CCD-0159,
,67142,40399,,,"35158 Mt Hermon Rd, Pittsville MD 21850",Wicomico,CAFO,PRESTON R. SMITH/R & D FARMS,,38.328975,-75.395117,39867,39867,47300,Chickens-not laying hens-dry,,,Registered,,40802,2009-CCD-0109,
,66668,41309,,,"8919 Morris Rd, Whaleyville MD 21872",Worcester,CAFO,R & S FARM OPERATIONS LLC/ROASTER FARM,,38.446609,-75.264776,,41309,108000,Chickens-not laying hens-dry,,,Registered,,41815,2013-CCD-0648,
,67216,41309,,,"13124 Blueberry Rd, Whaleyville MD 21872",Worcester,CAFO,R & S FARM OPERATIONS LLC/SWAMP FARM,,38.442606,-75.287507,39876,41309,100000,Chickens-not laying hens-dry,,,Registered,,41848,2013-CCD-0283,
,133394,41103,,,"3931 Laurel Grove Rd, Federalsburg MD 21632",Caroline,CAFO,R. MICHAEL RICHARDSON/CHERRY LANE FARM,,38.717775,-75.804332,40599,40599,81000,Chickens-not laying hens-dry,,,Registered,,41218,2011-CCD-0461,
,67824,41694,,,"31503 Rehobeth Rd, Westover MD 21871",Somerset,CAFO,"RAMSAY FAMILY FARM, INC.",,38.053131,-75.66158,41694,39871,127500,Chickens-not laying hens-dry,,,Registered,,41740,2009-CCD-0509,
,68005,40459,,,"26229 Williamsburg Rd, Federalsburg MD 21632",Caroline,CAFO,RANDY & ANN COLLINS FARM,,38.683164,-75.79522,41015,39875,63000,Chickens-not laying hens-dry,,,Registered,,40746,2009-CCD-0077,
,67229,39900,,,"8052 Ironshire Station Rd, Berlin MD 21811",Worcester,CAFO,RANDY BUI/RANDY FARM,,38.315424,-75.296131,39870,39870,210800,Chickens-not laying hens-dry,,,Registered,,41796,2009-CCD-0160,
,67154,40459,,,"6418 Palmers Mills Rd, Hurlock MD 21632",Dorchester,CAFO,RANDY COLLINS/MOTHER HEN FARM,,38.635568,-75.82234,39874,39874,51000,Chickens-not laying hens-dry,,,Registered,,41844,2009-CCD-0243,
,132356,40466,,,"10012 Arden Station Road, Princess Anne MD 21853",Somerset,CAFO,RANTZ WILLIAM PURCELL/RWP FARM,,38.15806,-75.665112,,40463,90000,Chickens-not laying hens-dry,,,Registered,,40905,2010-CCD-0429,
,67905,41204,,,"6787 Powellville Rd, Willards MD 21874",Wicomico,CAFO,RAY A. LEWIS/LEWIS FARM,,38.373673,-75.352174,40520,39874,63000,Chickens-not laying hens-dry,,,Registered,,41304,2009-CCD-0244,
,67145,41204,,,"32516 Downing Rd, Delmar MD 21875",Wicomico,CAFO,RAY A. LEWIS/RAY'S CHICKS,,38.432387,-75.484113,40520,39874,43200,Chickens-not laying hens-dry,,,Registered,,41304,2009-CCD-0245,
,66961,41586,,,"5519 Town Point Rd, Cambridge MD 21613",Dorchester,CAFO,RAYMOND AARON JR.,,38.568569,-76.141839,,41312,57000,Chickens-not laying hens-dry,,,Registered,,41677,2013-CCD-0534,
,131204,,,,"33960 Sassafras Caldwell Rd, Galena MD 21635",Kent,MAFO,"RICH LEVELS GRAIN, INC.",,39.37485,-75.782499,,41886,,,,,Registered,,41949,2014-MCD-0568,
,68014,40806,,,"8916 Cedar Lane Rd, Berlin MD 21811",Worcester,CAFO,RICHARD & KAREN WIDGEON,,38.318331,-75.262964,,39909,84000,Chickens-not laying hens-dry,,,Registered,,40928,2009-CCD-0363,
,67254,39877,,,"1128 Snow Hill Rd, Stockton MD 21864",Worcester,CAFO,RICHARD E. BLEVINS/TWIN OAK FARM,,38.040902,-75.408762,39877,39877,122400,Chickens-not laying hens-dry,,,Registered,,40672,2009-CCD-0024,
,132829,40665,,,"12805 Kibler Rd, Greensboro MD 21639",Caroline,CAFO,RICHARD H. JANVIER,,38.95651,-75.765258,,40526,75000,Chickens-not laying hens-dry,,,Registered,,41563,2010-CCD-0443,
,67036,40308,,,"5531 Thompsontown Rd, East New Market MD 21631",Dorchester,MAFO,RICHARD HALL/HALLADISE & HIDDEN HARVEST FARMS,,38.562918,-75.9091,39874,39874,,,,,Registered,,41218,2009-MCD-0518,
,139694,41907,,,"346 Hall Rd, Pocomoke City MD 21851",Worcester,CAFO,RICKY HOLLAND JEN RIC FARM,,38.009829, -75.616052,,41302,50000,Chickens-not laying hens-dry,,,Registered,,41967,2013-CCD-0687,
,67204,41886,,,"2315 Tulls Corner Road, Pocomoke City MD 21851",Worcester,CAFO,RICKY SCOTT HOLLAND/RAILROAD FARMS,,38.019234, -75.550721,,41494,108000,Chickens-not laying hens-dry,,,Registered,,41942,2013-CCD-0367,
,130079,40598,,,"1302 Colona Road, Pocomoke City MD 21851",Worcester,CAFO,RICKY T. HOLLAND/COLONA FARM,,38.012379,-75.600983,40448,40189,110000,Chickens-not laying hens-dry,,,Registered,,41717,2010-CCD-0394,
,102282,41541,,,"27164 Iron Gate Rd, Federalsburg MD 21632",Caroline,CAFO,ROBERT EDWIN LOVE/BOBBY LOVE FARM,,38.798385,-75.762051,,41344,54000,Chickens-not laying hens-dry,,,Registered,,41614,2013-CCD-0672,
,67062,40540,,,"26731 Siloam Rd, Salisbury MD 21601",Wicomico,CAFO,ROBERT GRAVES/BOBBY GRAVES FARM,,38.320914,-75.687395,39871,39871,105000,Chickens-not laying hens-dry,,,Registered,,41058,2009-CCD-0186,
,67127,41936,,,"6902 Whiteley Rd, Federalsburg MD 21632",Caroline,CAFO,ROBERT HOWARD,,38.680473,-75.814998,41731,41802,69500,Chickens-not laying hens-dry,,,Registered,,41971,2014-CCD-0535,
,67079,40647,,,"1266 Laurel Rd, Mardela Springs MD 21837",Wicomico,CAFO,ROBERT JAMES HASTINGS/CRUSER MILL FARM,,38.525943,-75.712571,39871,39871,90000,Chickens-not laying hens-dry,,,Registered,,41270,2009-CCD-0187,
,133509,40730,,,"30091 Rabbit Hill Rd, Easton MD 21601",Talbot,CAFO,ROBERT P. SAATHOFF JR. FARM,,38.840363,-76.03151,40588,40588,54000,Chickens-not laying hens-dry,,,Registered,,41577,2011-CCD-0458,
,66534,39874,,,"3209 Peters Corner Rd, Queen Anne MD 21649",Queen Anne's,CAFO,ROBERT W. MCCORMICK/SANDY BRAE FARM,,39.150613,-75.775471,41015,39874,90000,Chickens-not laying hens-dry,,,Registered,,40694,2009-CCD-0060,
,67176,40550,,,"5132 Clark Canning Hs. Rd, Federalsburg MD 21632",Dorchester,CAFO,ROCKIN' W. RANCH,,38.678338,-75.799288,,41164,57000,Chickens-not laying hens-dry,,,Registered,,41381,2009-CCD-0507,
,67169,41645,,,"7128 Hubbard Rd, Federalsburg MD 21632",Caroline,MAFO,ROLAND TODD/ROLAND'S ROASTER'S,,38.689986,-75.834721,39863,39863,178000,Chickens-not laying hens-dry,,,Registered,,41845,2009-MCD-0481,
,68025,40737,,,"5290 Harmony Rd5146 Harmony Rd, Preston MD 21655",Caroline,CAFO,RONALD AND JOYCE COHEE FARMS,,38.753409,-75.877899,40245,39870,107000,Chickens-not laying hens-dry,,,Registered,,40960,2009-CCD-0161,
,68102,41093,,,"2960 Jesterville Rd, Nanticoke MD 21840",Wicomico,CAFO,RONALD T. FISHER/THURMAN FARMS,,38.280152,-75.895036,41620,39869,44000,Chickens-not laying hens-dry,,,Registered,,41697,2009-CCD-0130,
,66627,40357,,,"11831 Big Stone Rd, Galena MD 21635",Kent,CAFO,RONALD W. VAN CULIN/WHITE STONE FARM,,39.299279,-75.767588,39874,39874,54000,Chickens-not laying hens-dry,,,Registered,,40694,2009-CCD-0066,
,66744,41523,,,"25986 Beauchamp Branch Rd, Denton MD 21629",Caroline,CAFO,"RONDEB FAMILY FARM, LLC",,38.806029,-75.803233,,41247,48000,Chickens-not laying hens-dry,,,Registered,,41632,2012-CCD-0650,
,129177,40415,,,"30581 Turkey Branch Rd, Westover MD 21871",Somerset,CAFO,RONNIE SCHROCK/BREEZEWOOD POULTRY FARM,,38.098455,-75.69344,40112,40112,56000,Chickens-not laying hens-dry,,,Registered,,40802,2009-CCD-0382,
,68149,40772,,,"8001 Old Ocean City Rd, Whaleyville MD 21872",Worcester,CAFO,RONNIE THOMPSON/YOFLY FARM,,38.392096,-75.297068,39891,39884,55000,Chickens-not laying hens-dry,,,Registered,,40928,2009-CCD-0339,
,66974,41807,,,"34330 Wango Rd, Pittsville MD 21850",Wicomico,CAFO,RYAN MARSHALL/ABM FARM,,38.323854,-75.391129,,41848,138000,Chickens-not laying hens-dry,,,Registered,,41936,2014-CCD-0698,
,130840,40941,,,"6718 Dion Rd, Federalsburg MD 21632",Caroline,CAFO,"S & W WHITETAIL FARM, LLC",,38.787856,-75.768758,40270,40270,80000,Chickens-not laying hens-dry,,,Registered,,41009,2010-CCD-0403,
,66987,41345,,,"27301Fitzgerald Rd, Princess Anne MD 21853",Somerset,CAFO,S.H.L. ANDERSON INC.,,38.197118,-75.80535,,39875,87000,Chickens-not laying hens-dry,,,Registered,,41439,2009-CCD-0537,
,67038,40442,,,"6635 Friendship Rd, Pittsville MD 21850",Wicomico,CAFO,SABAH EL-BAF/ALIBABA FARM,,38.373849,-75.386027,39867,39867,155000,Chickens-not laying hens-dry,,,Registered,,40798,2009-CCD-0111,
,66935,40357,,,"17254 Cool Spring Rd, Marydel MD 21646",Caroline,CAFO,SAMUEL F COOPER JR,,39.08025,-75.772401,39869,39869,111000,Chickens-not laying hens-dry,,,Registered,,40672,2009-CCD-0131,
,68043,40694,,,"12160 East Ridge Rd, Princess Anne MD 21853",Somerset,CAFO,SAMUEL W. HALL/EAST RIDGE FARM,,38.21512,-75.714704,39888,39863,72000,Chickens-not laying hens-dry,,,Registered,,41514,2009-CCD-0472,
,66985,40638,,,"32180 West Post Office Rd, Princess Anne MD 21853",Somerset,CAFO,SANDY RIDGE FARM INC.,,38.220967,-75.632951,39876,39876,92400,Chickens-not laying hens-dry,,,Registered,,41138,2009-CCD-0298,
,68001,40587,,,"1607 Unionville Rd, Pocomoke City MD 21851",Worcester,CAFO,SARAH T. CHISHOLM/PULLET DOWNS INC.,,38.066572,-75.592483,41319,39909,53000,Chickens-not laying hens-dry,,,Registered,,41845,2009-CCD-0362,
,68049,41841,,,"35618 Rayne Rd, Willards MD 21874",Wicomico,CAFO,SARFRAZ AHMAD/FAKHRA-SARFRAZ FARM,,38.412048,-75.376769,,41803,222600,Chickens-not laying hens-dry,,,Registered,,41949,2009-CCD-0246A,
,23563,41631,,,"Kibler Rd & Rte 314, Greensboro MD 21639",Caroline,CAFO,"SCHIFF FARMS, INC.",,38.960984,-75.769451,,40210,2800,Cattle - includes heifers,,,Registered,,41851,2010-CCA-0399,
,66874,40997,,,"3341 Choptank Rd, Preston MD 21655",Caroline,CAFO,"SCHMICK FARM, INC.",,38.699692,-75.926462,41431,39875,71600,Chickens-not laying hens-dry,,,Registered,,40623,2009-CCD-0050,
,68051,41709,,,"8475 Follow Ditch Rd, Westover MD 21871",Somerset,CAFO,SCOT BEAUCHAMP/HOME AND DAD'S FARMS,,38.112987,-75.612044,,39874,152000,Chickens-not laying hens-dry,,,Registered,,41800,2009-CCD-0520,
,67013,40165,,,"11034 Kittys Corner Rd, Cordova MD 21625",Talbot,CAFO,SCOTT COLLIER/COLLIER FARMS,,38.849758,-75.990518,39863,39863,122700,Chickens-not laying hens-dry,,,Registered,,40746,2009-CCD-0079,
,132412,41005,,,"22535 Tanyard Road, Preston MD 21655",Caroline,CAFO,SCOTT E. FRASE/HAILEY BAILEY FARM,,38.74892,-75.926093,,40477,60000,Chickens-not laying hens-dry,,,Registered,,40760,2010-CCD-0430,
,67194,41199,,,"3347 Betheden Church Rd, Pocomoke City MD 21851",Worcester,CAFO,SHABBIR CHOUDERY/CHOUDERY/PAK-AM FARMS,,38.112122,-75.461889,39875,39875,296400,Chickens-not laying hens-dry,,,Registered,,41439,2009-CCD-0277,
,96101,41642,,,"27340 Crisfield Marion Rd, Crisfield MD 21817",Somerset,CAFO,SHARON MACNEAL/CULLEN FARM,,38.02996,-75.814076,,41156,70000,Chickens-not laying hens-dry,,,Registered,,41794,2012-CCD-0679,
,66875,40410,,,"26786 Temple Rd, Marydel MD 21649",Caroline,CAFO,SHARON WELSH FARM,,39.11738,-75.767726,41303,39876,80000,Chickens-not laying hens-dry,,,Registered,,41265,2009-CCD-0299,
,143134,41121,,,"12338 Campbelltown Rd, Bishopville MD 21813",Worcester,CAFO,SMITH FARMS LIMITED PARTNERSHIP/B & D FARM,,38.424668,-75.235952,41831,41180,84000,Chickens-not laying hens-dry,,,Registered,,41948,2012-CCD-0691,
,66876,40431,,,"6158 Todd Rd, Federalsburg MD 21632",Caroline,CAFO,SMITHVILLE VIEW FARM LLC,,38.776021,-75.750236,40963,39874,137000,Chickens-not laying hens-dry,,,Registered,,40697,2009-CCD-0063,
,67165,41452,,,"3523 Chateau Drive, East New Market MD 21631",Dorchester,CAFO,SOON HEE KIM/UNION MILL FARM,,38.551365,-75.977356,,41452,60000,Chickens-not laying hens-dry,,,Registered,,41750,2013-CCD-0559,
,132493,40714,,,"6329 Statum Road, Preston MD 21655",Caroline,CAFO,STEPHEN EARL FOSTER/WHITE TAIL GROVE,,38.782257,-75.854941,40479,40479,60000,Chickens-not laying hens-dry,,,Registered,,41533,2010-CCD-0432,
,129184,41652,,,"28385 Old Eden Rd, Eden MD 21822",Wicomico,CAFO,STEVE STUART/DRAGON'S LAIR FARM,,38.29229, -75.626424,41568,41568,120000,Chickens-not laying hens-dry,,,Registered,,41726,2013-CCD-0381,
,66515,40108,,,"1905 Sudlersville Rd, Sudlersville MD 21668",Queen Anne's,CAFO,STEVEN R. HOSTETLER/ALMOSTA FARM,,39.167657,-75.93394,40967,39870,42000,Chickens-not laying hens-dry,,,Registered,,41414,2009-CCD-0163,
,68085,40561,,,"4518 Gadow Rd, Preston MD 21655",Caroline,CAFO,STEWART COHEE/BEN'S TURN,,38.732202,-75.875176,39874,39874,40000,Chickens-not laying hens-dry,,,Registered,,41577,2009-CCD-0250,
,67906,40625,,,"10614 Garland Rd, Denton MD 21624",Caroline,CAFO,STUART L. MARGREY/LYN LARK FARM,,38.89857,-75.799331,,40428,80000,Chickens-not laying hens-dry,,,Registered,,41514,2010-CCD-0423,
,67246,40445,,,"5450 Onley Rd, Girdletree MD 21829",Worcester,CAFO,SUCCESSFUL FARM INC,,38.094016,-75.412537,39864,39864,144800,Chickens-not laying hens-dry,,,Registered,,40830,2009-CCD-0100,
,68100,40612,,,"31151 Carioca Rd, Delmar MD 21875",Wicomico,CAFO,SUN SANG KIM/SUN'S CHICKEN FARM,,38.42521,-75.53189,39870,39870,50000,Chickens-not laying hens-dry,,,Registered,,41520,2009-CCD-0165,
,67050,40436,,,"4013 ST Luke Rd, Salisbury MD 21804",Wicomico,CAFO,SUNG PARK/BETHEL FARM,,38.303561,-75.602073,39868,39868,73600,Chickens-not laying hens-dry,,,Registered,,41520,2009-CCD-0117,
,67156,41183,,,"695 Bachmans Valley Rd, Westminster MD 21157",Carroll,CAFO,SUNNYSIDE POULTRY FARMS,,39.644592,-76.970588,,39874,398980,Laying hens - dry manure,,,Registered,,41470,2009-CCD-0521,
,67054,41810,,,"9502 Spring Hill Lane, Salisbury MD 21801",Wicomico,CAFO,SUSAN ARNOLD/BLACKWATER FARMS,,38.454616,-75.665641,39870,39870,62500,Chickens-not laying hens-dry,,,Registered,,41900,2009-CCD-0166,
,67173,40667,,,"6012 Newhart Mill Rd, Galestown MD 21659",Dorchester,MAFO,T. HARRY WHEEDLETON,,38.602989,-75.71436,41009,39875,88000,Chickens-not laying hens-dry,,,Registered,,41794,2009-MCD-0538,
,66966,41116,,,"4723 Stockton Rd, Pocomoke City MD 21851",Worcester,CAFO,TAE H. KIM/M & J FARM,,38.069865,-75.454796,39870,39870,65000,Chickens-not laying hens-dry,,,Registered,,41270,2009-CCD-0167,
,67149,40652,,,"8830 Calloway Rd, Willards MD 21874",Wicomico,CAFO,TAM PHAM/PHUONG TAM FARM,,38.432576,-75.394578,40448,40665,96000,Chickens-not laying hens-dry,,,Registered,,41523,2011-CCD-0466,
,66594,40365,,,"160 Cherry Blossom Farm Lane, Church Hill MD 21623",Queen Anne's,CAFO,"TAYLOR,BURGESS & BURGESS LLC",,39.095706,-75.914125,39870,39870,250000,Chickens-not laying hens-dry,,,Registered,,40805,2009-CCD-0168,
,21912,40609,,,"10311 Glade Rd, Walkersville MD 21793",Frederick,CAFO,"TEABOW, INCORPORATED",,39.514325,-77.343745,41807,40311,1672,Dairy Cattle,,,Registered,,41971,2010-CDC-0407,
,66994,41103,,,"29418 Hudson Corner, Marion MD 21838",Somerset,CAFO,THANH TRAN/CHOPTANK & LITTLE ANNEMESSEX,,38.040795,-75.735187,,41103,336000,Chickens-not laying hens-dry,,,Registered,,41810,2012-CCD-0615,
,67223,40550,,,"2501 Lambertson Rd, Pocomoke City MD 21851",Worcester,CAFO,THOAN PHAM/PETER & TERRY FARM,,38.082157,-75.497793,39868,39868,219700,Chickens-not laying hens-dry,,,Registered,,41534,2009-CCD-0118,
,66970,40606,,,"4356 Steele Neck Rd, Vienna MD 21869",Dorchester,CAFO,THOMAS DIGREGORIO/CAMLAU FARMS,,38.471266,-75.886803,41696,39882,53300,Chickens-not laying hens-dry,,,Registered,,41439,2009-CCD-0330,
,68124,40571,,,"7644 Downs Rd, Newark MD 21841",Worcester,CAFO,THOMAS HOWARD TRUITT/TEL FARMTHOMAS HOWARD TRUITT/T & L FARM,,38.268883,-75.252,39994,39994,40000,Chickens-not laying hens-dry,,,Registered,,41498,2009-CCD-0374,
,66538,40084,,,"115 Wright Neck Rd, Queen Anne MD 21617",Queen Anne's,CAFO,"THOMAS T. AUSTIN, JR./SERENITY FARM",,39.028604,-76.121621,40975,39875,105400,Chickens-not laying hens-dry,,,Registered,,40371,2009-CCD-0004,
,67000,41592,,,"27160 Cash Corner Rd, Crisfield MD 21817",Somerset,CAFO,THOMAS W. HORNSBY & JACQUI L. RANCHOR-HORNSBY/ DELILAH RUN,,37.991344,-75.813986,41592,41024,162500,Chickens-not laying hens-dry,,,Registered,,41697,2012-CCD-0620,
,67130,40436,,,"32158 Downing Rd, Delmar MD 21875",Wicomico,CAFO,TIM NGUYEN FARM,,38.427393,-75.497109,39895,39870,87200,Chickens-not laying hens-dry,,,Registered,,40983,2009-CCD-0170,
,66796,40441,,,"21361 Tanyard Rd, Preston MD 21673",Caroline,CAFO,TIMOTHY DANIELS/CHICKEN LITTLE FARM,,38.756991,-75.963658,39870,39870,105000,Chickens-not laying hens-dry,,,Registered,,40700,2009-CCD-0073,
,67124,40515,,,"9577 Old Railroad Rd, Mardela Springs MD 21837",Wicomico,CAFO,TIMOTHY M. WRIGHT/MUDDYBOTTOM FARM,,38.455829,-75.696264,,39877,67200,Chickens-not laying hens-dry,,,Registered,,41138,2009-CCD-0315,
,95219,41134,,,"312 Thisitville Circle, Centreville MD 21617",Queen Anne's,CAFO,"TINA L. JOHNSON/LITTLE CHICKS, LLC",,38.976077,-76.033983,,41134,108000,Chickens-not laying hens-dry,,,Registered,,41312,2012-CCD-0621,
,139965,41389,,,"31700 Mitchell Rd, Princess Anne MD 21853",Somerset,CAFO,TINY ANGELS,,38.150376,-75.653505,,41731,136000,Chickens-not laying hens-dry,,,Registered,,41800,2013-CCD-0658,
,131936,41451,,,"8001 Athol Rd, Hebron MD 21830",Wicomico,CAFO,TOMMY ANDREW NEAL/BURNS FARM,,38.412951,-75.758222,40413,40413,45400,Chickens-not laying hens-dry,,,Registered,,41523,2010-CCD-0419,
,131935,41393,,,"7507 Quantico Rd, Hebron MD 21830",Wicomico,CAFO,TOMMY ANDREW NEAL/GINNY LEE FARM,,38.399444,-75.711215,40413,40413,55800,Chickens-not laying hens-dry,,,Registered,,41470,2010-CCD-0420,
,131938,41451,,,"25140 Rewastico Rd, Hebron MD 21830",Wicomico,CAFO,TOMMY ANDREW NEAL/WET BOTTOM FARM,,38.410862,-75.742587,40413,40413,55300,Chickens-not laying hens-dry,,,Registered,,41523,2010-CCD-0421,
,67126,40795,,,"6323 Friendship Rd, Pittsville MD 21850",Wicomico,CAFO,TONY PHAM/TIFFANY AND NANCY FARMS,,38.363456,-75.373844,39876,39876,147000,Chickens-not laying hens-dry,,,Registered,,41058,2009-CCD-0300,
,92356,41708,,,"27440 Holland Crossing Rd, Marion MD 21838",Somerset,CAFO,TRELLE EDWARD STERLING/STERLING HILLS FOLLYFARM,,38.026415,-75.805705,,41786,147200,Chickens-not laying hens-dry,,,Registered,,41845,2012-CCD-0614A,
,66877,,,,"4308 Langrell Rd, Preston MD 21655",Caroline,MAFO,TRICE FARMS INC,,38.697961,-75.891668,41690,39877,62000,Chickens-not laying hens-dry,,,Registered,,41851,2009-MCD-0549,
,133542,40966,,,"3579 Poplar Neck Rd, Preston MD 21655",Caroline,CAFO,TRINA NORTH GARVEY/TYCON FARM,,38.705855,-75.954154,41222,40610,71400,Chickens-not laying hens-dry,,,Registered,,41086,2011-CCD-0463,
,66595,40386,,,"403 Sawmill Rd, Marydel MD 21649",Caroline,CAFO,TRINITY FARM LLC,,39.182841,-75.803555,41505,39874,104000,Chickens-not laying hens-dry,,,Registered,,41565,2009-CCD-0251,
,66941,41288,,,"8636 Tuckahoe Rd, Denton MD 21629",Caroline,CAFO,"TUCKAHOE RIVER FARM POULTRY, LLC",,38.84194,-75.907996,39874,39874,234000,Chickens-not laying hens-dry,,,Registered,,41362,2009-CCD-0252,
,67186,41634,,,"5821 Candleberry Lane, Snow Hill MD 21863",Worcester,CAFO,VIRGIL L. SHOCKLEY/BOONDOCK FARM,,38.269459,-75.391072,41389,39871,74500,Chickens-not laying hens-dry,,,Registered,,41820,2009-CCD-0188,
,66953,41856,,,"4805 Skinners Run Rd, Hurlock MD 21643",Dorchester,CAFO,W E GOEHRINGER JR.,,38.686162,-75.843431,41802,41821,105000,Chickens-not laying hens-dry,,,Registered,,41901,2014-CCD-0523,
,67027,,,,"4825 Skinners Run Rd, Hurlock MD 21643",Dorchester,COC,W M GOEHRINGER,,38.682495, -75.840802,41802,41193,,,,,Certification of Conformance (See AFO Webpage),,,2012-AFO-0524,41193
,67075,40694,,,"7293 Brick Kiln Rd, Salisbury MD 21803",Wicomico,CAFO,W. DEAN MURRAY/CONSOLIDATED FARM,,39.227355,-76.178451,39869,39869,42000,Chickens-not laying hens-dry,,,Registered,,41439,2009-CCD-0132,
,134432,40694,,,"33675 Race Bridge Rd, Parsonsburg MD 21849",Wicomico,CAFO,W. DEAN MURRAY/HERITAGE FARM,,38.686126,-75.843531,,39869,32000,Chickens-not laying hens-dry,,,Registered,,41520,2009-CCD-0470,
,66622,40147,,,"22840 Bayshore Rd, Chestertown MD 21620",Kent,CAFO,"W. FRANK BARNES, JR./FAIRFIELD FARM",,38.683011,-75.842007,41754,39862,122000,Chickens-not laying hens-dry,,,Registered,,40771,2009-CCD-0088,
,66950,40455,,,"6370 Bell Creek Rd, Preston MD 21655",Caroline,CAFO,WAYNE TODD QUIDAS/WINGS LANDING,,38.782755,-75.922438,39874,39874,76000,Chickens-not laying hens-dry,,,Registered,,40694,2009-CCD-0065,
,67252,40591,,,"10137 Beaverdam Creek Rd, Berlin MD 21811",Worcester,CAFO,WAYNE TRUITT & ANN TRUITT FARM,,38.28593,-75.213889,39891,39891,77700,Chickens-not laying hens-dry,,,Registered,,41498,2009-CCD-0350,
,132042,40795,,,"7160 Hubbard Rd, Federalsburg MD 21632",Caroline,CAFO,WAYNE WILSON/LADY LOU'S FARM,,38.69497,-75.836607,41767,40428,49900,Chickens-not laying hens-dry,,,Registered,,41040,2010-CCD-0424,
,68127,41676,,,"660 Busic Church Rd, Sudlersville MD 21668",Queen Anne's,CAFO,"WEAVER FARMS, LLC",,39.147848,-75.809895,39875,39875,120000,Chickens-not laying hens-dry,,,Registered,,41726,2009-CCD-0278,
,67171,41568,,,"5641 Newhart Mill Rd, Rhodesdale MD 21659",Dorchester,CAFO,"WHEAT - RIDGE FARM, INC",,38.574733,-75.739547,,39871,130000,Chickens-not laying hens-dry,,,Registered,,41747,2009-CCD-0557,
,131767,40406,,,"5101 Hydes Rd, Hydes MD 21082",Baltimore,CAFO,"WHITELYN FARMS, INC.",,39.482541,-76.50491,,40406,830,Dairy Cattle,,,Registered,,40697,2010-CDC-0061,
,67110,40969,,,"8381 Athol Rd8341 Athol Rd, Mardela Springs MD 21837",Wicomico,CAFO,WILLIAM & EDWARD CALLOWAY/CALLOWAY BROS,,38.425522,-75.785727,40756,39875,185000,Chickens-not laying hens-dry,,,Registered,,41089,2009-CCD-0279,
,68143,40997,,,"12450 Ridgely Rd, Ridgely MD 21660",Caroline,CAFO,"WILLIAM A. MOORE, SR./BILLINDA FARM",,38.879115,-75.966199,41452,39871,61000,Chickens-not laying hens-dry,,,Registered,,41590,2009-CCD-0189,
,67929,40893,,,"31820 Covey's Landing Rd, Cordova MD 21625",Talbot,CAFO,WILLIAM A. MOORE/MOORE FAMILY FARM,,38.950173,-75.861968,41197,39874,179500,Chickens-not laying hens-dry,,,Registered,,41218,2009-CCD-2053,
,66523,40455,,,"30943 Queen Anne Hwy, Queen Anne MD 21657",Queen Anne's,CAFO,WILLIAM B. MESSIX IV & FRANCIS T. MESSIX/HOPESVIEW FARM,,38.927672,-76.000181,40989,39874,40000,Chickens-not laying hens-dry,,,Registered,,41414,2009-CCD-2054,
,132065,41156,,,"32773 Rehobeth Rd, Pocomoke City MD 21851",Somerset,CAFO,"WILLIAM BEAUCHAMP, III",,38.081422,-75.617796,41703,41694,70000,Chickens-not laying hens-dry,,,Registered,,41799,2014-CCD-0571,
,67187,40618,,,"6906 Libertytown Rd, Berlin MD 21811",Worcester,CAFO,WILLIAM BURBAGE/BURBAGE GROVE FARM,,38.307473,-75.340286,39870,39870,94700,Chickens-not laying hens-dry,,,Registered,,41484,2009-CCD-0172,
,68139,39904,,,"8966 Bakers Ln, Chestertown MD 21620",Kent,CAFO,WILLIAM C. & JUDITH A. LOLLER,,39.227051,-76.143785,,39875,270000,Chickens-not laying hens-dry,,,Registered,,40564,2009-CCD-0039,
,68140,41330,,,"6269 Bessen Rd, Stockton MD 21864",Worcester,CAFO,WILLIAM C. ROWLAND/GONE HUNTIN FARM,,38.023707,-75.388886,41464,39874,120000,Chickens-not laying hens-dry,,,Registered,,41439,2009-CCD-0255,
,67877,40492,,,"27733 Burrsville Rd, Denton MD 21629",Caroline,CAFO,WILLIAM GARY MARVEL/HIDDEN ACRES FARM,,38.898027,-75.738349,41744,39870,94000,Chickens-not laying hens-dry,,,Registered,,40694,2009-CCD-0064,
,66776,41403,,,"27762 Oriole Rd, Princess Anne MD 21853",Somerset,CAFO,WILLIAM LONG,,38.181526,-75.790239,39875,39875,40000,Chickens-not laying hens-dry,,,Registered,,41543,2009-CCD-0280,
,67167,39884,,,"5616 Springdale Rd, East New Market MD 21631",Dorchester,CAFO,WILLIAM M. TWILLEY/SPRINGDALE FARM,,38.571406,-75.965663,40966,39884,142000,Chickens-not laying hens-dry,,,Registered,,41183,2009-CCD-0340,
,66771,41627,,,"32435 Rehobeth Rd, Pocomoke City MD 21851",Worcester,CAFO,WILLIAM MICHAEL DRYDEN,,38.068089,-75.627675,41731,41834,121000,Chickens-not laying hens-dry,,,Registered,,41900,2009-CCD-0624,
,132274,40501,,,"6240 Eldorado Rd, Hurlock MD 21643",Dorchester,CAFO,"WILLIAM O'DAY, JR./WHITETAIL FARM",,38.616407, -75.779883,,40457,97200,Chickens-not laying hens-dry,,,Registered,,40805,2010-CCD-0428,
